FINCH_access/sat_access_analysis_NB/70degdataNB.txt

                                                                              27 Jan 2024 13:00:01
Place-BahenGS-Sensor-Sensor2-To-Satellite-Finch:  Access Summary Report


Sensor2-To-Finch
----------------
                  Access        Start Time (UTCG)           Stop Time (UTCG)        Duration (sec)
                  ------    ------------------------    ------------------------    --------------
                       1     1 Jan 2026 04:53:20.914     1 Jan 2026 04:58:18.764           297.849
                       2     1 Jan 2026 17:55:25.177     1 Jan 2026 18:00:23.249           298.072
                       3     2 Jan 2026 04:34:53.201     2 Jan 2026 04:39:25.708           272.507
                       4     2 Jan 2026 17:36:48.551     2 Jan 2026 17:41:33.202           284.651
                       5     3 Jan 2026 04:16:52.555     3 Jan 2026 04:20:11.344           198.789
                       6     3 Jan 2026 17:18:32.297     3 Jan 2026 17:22:17.106           224.809
                       7     4 Jan 2026 05:31:38.767     4 Jan 2026 05:35:25.991           227.224
                       8     4 Jan 2026 18:33:44.598     4 Jan 2026 18:37:06.257           201.660
                       9     5 Jan 2026 05:12:23.522     5 Jan 2026 05:17:09.027           285.506
                      10     5 Jan 2026 18:14:31.007     5 Jan 2026 18:19:04.682           273.675
                      11     6 Jan 2026 04:53:34.051     6 Jan 2026 04:58:31.975           297.924
                      12     6 Jan 2026 17:55:38.384     6 Jan 2026 18:00:36.392           298.008
                      13     7 Jan 2026 04:35:06.075     7 Jan 2026 04:39:39.113           273.038
                      14     7 Jan 2026 17:37:01.564     7 Jan 2026 17:41:46.608           285.043
                      15     8 Jan 2026 04:17:05.010     8 Jan 2026 04:20:25.102           200.093
                      16     8 Jan 2026 17:18:44.988     8 Jan 2026 17:22:30.897           225.908
                      17     9 Jan 2026 05:31:52.548     9 Jan 2026 05:35:38.690           226.142
                      18     9 Jan 2026 18:33:58.349     9 Jan 2026 18:37:18.718           200.369
                      19    10 Jan 2026 05:12:36.920    10 Jan 2026 05:17:22.045           285.125
                      20    10 Jan 2026 18:14:44.410    10 Jan 2026 18:19:17.560           273.151
                      21    11 Jan 2026 04:53:47.191    11 Jan 2026 04:58:45.185           297.994
                      22    11 Jan 2026 17:55:51.593    11 Jan 2026 18:00:49.532           297.939
                      23    12 Jan 2026 04:35:18.953    12 Jan 2026 04:39:52.517           273.563
                      24    12 Jan 2026 17:37:14.581    12 Jan 2026 17:42:00.007           285.426
                      25    13 Jan 2026 04:17:17.472    13 Jan 2026 04:20:38.854           201.382
                      26    13 Jan 2026 17:18:57.688    13 Jan 2026 17:22:44.683           226.995
                      27    14 Jan 2026 05:32:06.337    14 Jan 2026 05:35:51.386           225.049
                      28    14 Jan 2026 18:34:12.109    14 Jan 2026 18:37:31.173           199.064
                      29    15 Jan 2026 05:12:50.322    15 Jan 2026 05:17:35.061           284.739
                      30    15 Jan 2026 18:14:57.817    15 Jan 2026 18:19:30.437           272.620
                      31    16 Jan 2026 04:54:00.335    16 Jan 2026 04:58:58.393           298.059
                      32    16 Jan 2026 17:56:04.805    16 Jan 2026 18:01:02.671           297.865
                      33    17 Jan 2026 04:35:31.837    17 Jan 2026 04:40:05.918           274.081
                      34    17 Jan 2026 17:37:27.602    17 Jan 2026 17:42:13.404           285.803
                      35    18 Jan 2026 04:17:29.944    18 Jan 2026 04:20:52.600           202.656
                      36    18 Jan 2026 17:19:10.392    18 Jan 2026 17:22:58.464           228.071
                      37    19 Jan 2026 05:32:20.133    19 Jan 2026 05:36:04.075           223.942
                      38    19 Jan 2026 18:34:25.881    19 Jan 2026 18:37:43.619           197.737
                      39    20 Jan 2026 05:13:03.728    20 Jan 2026 05:17:48.075           284.347
                      40    20 Jan 2026 18:15:11.227    20 Jan 2026 18:19:43.309           272.082
                      41    21 Jan 2026 04:54:13.480    21 Jan 2026 04:59:11.599           298.119
                      42    21 Jan 2026 17:56:18.019    21 Jan 2026 18:01:15.805           297.786
                      43    22 Jan 2026 04:35:44.723    22 Jan 2026 04:40:19.316           274.593
                      44    22 Jan 2026 17:37:40.623    22 Jan 2026 17:42:26.797           286.173
                      45    23 Jan 2026 04:17:42.422    23 Jan 2026 04:21:06.338           203.917
                      46    23 Jan 2026 17:19:23.102    23 Jan 2026 17:23:12.236           229.134
                      47    24 Jan 2026 05:32:33.935    24 Jan 2026 05:36:16.758           222.823
                      48    24 Jan 2026 18:34:39.655    24 Jan 2026 18:37:56.056           196.401
                      49    25 Jan 2026 05:13:17.136    25 Jan 2026 05:18:01.082           283.946
                      50    25 Jan 2026 18:15:24.638    25 Jan 2026 18:19:56.178           271.540
                      51    26 Jan 2026 04:54:26.629    26 Jan 2026 04:59:24.803           298.173
                      52    26 Jan 2026 17:56:31.235    26 Jan 2026 18:01:28.938           297.703
                      53    27 Jan 2026 04:35:57.613    27 Jan 2026 04:40:32.713           275.100
                      54    27 Jan 2026 17:37:53.649    27 Jan 2026 17:42:40.187           286.538
                      55    28 Jan 2026 04:17:54.907    28 Jan 2026 04:21:20.072           205.165
                      56    28 Jan 2026 17:19:35.820    28 Jan 2026 17:23:26.003           230.183
                      57    29 Jan 2026 05:32:47.746    29 Jan 2026 05:36:29.439           221.693
                      58    29 Jan 2026 17:02:40.418    29 Jan 2026 17:02:43.635             3.218
                      59    29 Jan 2026 18:34:53.438    29 Jan 2026 18:38:08.487           195.049
                      60    30 Jan 2026 05:13:30.550    30 Jan 2026 05:18:14.092           283.542
                      61    30 Jan 2026 18:15:38.055    30 Jan 2026 18:20:09.048           270.994
                      62    31 Jan 2026 04:54:39.783    31 Jan 2026 04:59:38.006           298.223
                      63    31 Jan 2026 17:56:44.455    31 Jan 2026 18:01:42.068           297.614
                      64     1 Feb 2026 04:36:10.507     1 Feb 2026 04:40:46.107           275.600
                      65     1 Feb 2026 17:38:06.678     1 Feb 2026 17:42:53.575           286.897
                      66     2 Feb 2026 04:18:07.399     2 Feb 2026 04:21:33.799           206.400
                      67     2 Feb 2026 17:19:48.542     2 Feb 2026 17:23:39.763           231.221
                      68     3 Feb 2026 05:33:01.563     3 Feb 2026 05:36:42.113           220.551
                      69     3 Feb 2026 17:02:41.356     3 Feb 2026 17:03:09.245            27.889
                      70     3 Feb 2026 18:35:07.229     3 Feb 2026 18:38:20.908           193.679
                      71     4 Feb 2026 05:13:43.966     4 Feb 2026 05:18:27.100           283.134
                      72     4 Feb 2026 18:15:51.472     4 Feb 2026 18:20:21.910           270.438
                      73     5 Feb 2026 04:54:52.937     5 Feb 2026 04:59:51.205           298.268
                      74     5 Feb 2026 17:56:57.675     5 Feb 2026 18:01:55.194           297.520
                      75     6 Feb 2026 04:36:23.403     6 Feb 2026 04:40:59.498           276.095
                      76     6 Feb 2026 17:38:19.708     6 Feb 2026 17:43:06.957           287.249
                      77     7 Feb 2026 04:18:19.898     7 Feb 2026 04:21:47.519           207.620
                      78     7 Feb 2026 17:20:01.270     7 Feb 2026 17:23:53.515           232.245
                      79     8 Feb 2026 05:33:15.387     8 Feb 2026 05:36:54.778           219.390
                      80     8 Feb 2026 17:02:48.956     8 Feb 2026 17:03:28.197            39.240
                      81     8 Feb 2026 18:35:21.024     8 Feb 2026 18:38:33.322           192.298
                      82     9 Feb 2026 05:13:57.386     9 Feb 2026 05:18:40.102           282.716
                      83     9 Feb 2026 18:16:04.893     9 Feb 2026 18:20:34.770           269.877
                      84    10 Feb 2026 04:55:06.095    10 Feb 2026 05:00:04.404           298.308
                      85    10 Feb 2026 17:57:10.898    10 Feb 2026 18:02:08.319           297.421
                      86    11 Feb 2026 04:36:36.304    11 Feb 2026 04:41:12.887           276.584
                      87    11 Feb 2026 17:38:32.742    11 Feb 2026 17:43:20.338           287.596
                      88    12 Feb 2026 04:18:32.405    12 Feb 2026 04:22:01.234           208.829
                      89    12 Feb 2026 17:20:14.004    12 Feb 2026 17:24:07.263           233.258
                      90    13 Feb 2026 05:33:29.220    13 Feb 2026 05:37:07.437           218.216
                      91    13 Feb 2026 17:02:57.876    13 Feb 2026 17:03:45.827            47.951
                      92    13 Feb 2026 18:35:34.831    13 Feb 2026 18:38:45.727           190.897
                      93    14 Feb 2026 05:14:10.810    14 Feb 2026 05:18:53.102           282.291
                      94    14 Feb 2026 18:16:18.317    14 Feb 2026 18:20:47.626           269.309
                      95    15 Feb 2026 04:55:19.257    15 Feb 2026 05:00:17.600           298.343
                      96    15 Feb 2026 17:57:24.124    15 Feb 2026 18:02:21.441           297.317
                      97    16 Feb 2026 04:36:49.208    16 Feb 2026 04:41:26.274           277.066
                      98    16 Feb 2026 17:38:45.778    16 Feb 2026 17:43:33.715           287.937
                      99    17 Feb 2026 04:18:44.920    17 Feb 2026 04:22:14.942           210.022
                     100    17 Feb 2026 17:20:26.743    17 Feb 2026 17:24:21.004           234.261
                     101    18 Feb 2026 05:33:43.059    18 Feb 2026 05:37:20.089           217.030
                     102    18 Feb 2026 17:03:07.483    18 Feb 2026 17:04:02.767            55.284
                     103    18 Feb 2026 18:35:48.645    18 Feb 2026 18:38:58.122           189.477
                     104    19 Feb 2026 05:14:24.237    19 Feb 2026 05:19:06.098           281.861
                     105    19 Feb 2026 18:16:31.743    19 Feb 2026 18:21:00.477           268.734
                     106    20 Feb 2026 04:55:32.420    20 Feb 2026 05:00:30.794           298.373
                     107    20 Feb 2026 17:57:37.350    20 Feb 2026 18:02:34.558           297.208
                     108    21 Feb 2026 04:37:02.114    21 Feb 2026 04:41:39.658           277.544
                     109    21 Feb 2026 17:38:58.816    21 Feb 2026 17:43:47.088           288.272
                     110    22 Feb 2026 04:18:57.440    22 Feb 2026 04:22:28.644           211.205
                     111    22 Feb 2026 17:20:39.488    22 Feb 2026 17:24:34.738           235.250
                     112    23 Feb 2026 05:33:56.907    23 Feb 2026 05:37:32.733           215.826
                     113    23 Feb 2026 17:03:17.546    23 Feb 2026 17:04:19.250            61.704
                     114    23 Feb 2026 18:36:02.467    23 Feb 2026 18:39:10.510           188.043
                     115    24 Feb 2026 05:14:37.668    24 Feb 2026 05:19:19.090           281.422
                     116    24 Feb 2026 18:16:45.173    24 Feb 2026 18:21:13.327           268.154
                     117    25 Feb 2026 04:55:45.588    25 Feb 2026 05:00:43.986           298.398
                     118    25 Feb 2026 17:57:50.580    25 Feb 2026 18:02:47.675           297.095
                     119    26 Feb 2026 04:37:15.025    26 Feb 2026 04:41:53.040           278.015
                     120    26 Feb 2026 17:39:11.859    26 Feb 2026 17:44:00.460           288.601
                     121    27 Feb 2026 04:19:09.968    27 Feb 2026 04:22:42.343           212.375
                     122    27 Feb 2026 17:20:52.239    27 Feb 2026 17:24:48.468           236.229
                     123    28 Feb 2026 05:34:10.766    28 Feb 2026 05:37:45.372           214.606
                     124    28 Feb 2026 17:03:27.923    28 Feb 2026 17:04:35.425            67.502
                     125    28 Feb 2026 18:36:16.299    28 Feb 2026 18:39:22.888           186.589
                     126     1 Mar 2026 05:14:51.103     1 Mar 2026 05:19:32.085           280.982
                     127     1 Mar 2026 18:16:58.607     1 Mar 2026 18:21:26.172           267.565
                     128     2 Mar 2026 04:55:58.758     2 Mar 2026 05:00:57.177           298.419
                     129     2 Mar 2026 17:58:03.812     2 Mar 2026 18:03:00.788           296.976
                     130     3 Mar 2026 04:37:27.939     3 Mar 2026 04:42:06.419           278.481
                     131     3 Mar 2026 17:39:24.902     3 Mar 2026 17:44:13.827           288.924
                     132     4 Mar 2026 04:19:22.502     4 Mar 2026 04:22:56.033           213.531
                     133     4 Mar 2026 17:21:04.993     4 Mar 2026 17:25:02.190           237.197
                     134     5 Mar 2026 05:34:24.628     5 Mar 2026 05:37:58.003           213.375
                     135     5 Mar 2026 17:03:38.544     5 Mar 2026 17:04:51.351            72.806
                     136     5 Mar 2026 18:36:30.138     5 Mar 2026 18:39:35.255           185.117
                     137     6 Mar 2026 05:15:04.540     6 Mar 2026 05:19:45.072           280.532
                     138     6 Mar 2026 18:17:12.041     6 Mar 2026 18:21:39.013           266.972
                     139     7 Mar 2026 04:56:11.930     7 Mar 2026 05:01:10.364           298.434
                     140     7 Mar 2026 17:58:17.045     7 Mar 2026 18:03:13.897           296.852
                     141     8 Mar 2026 04:37:40.855     8 Mar 2026 04:42:19.795           278.941
                     142     8 Mar 2026 17:39:37.948     8 Mar 2026 17:44:27.190           289.241
                     143     9 Mar 2026 04:19:35.041     9 Mar 2026 04:23:09.719           214.677
                     144     9 Mar 2026 17:21:17.754     9 Mar 2026 17:25:15.906           238.153
                     145    10 Mar 2026 05:34:38.499    10 Mar 2026 05:38:10.625           212.126
                     146    10 Mar 2026 17:03:49.358    10 Mar 2026 17:05:07.083            77.725
                     147    10 Mar 2026 18:36:43.986    10 Mar 2026 18:39:47.615           183.629
                     148    11 Mar 2026 05:15:17.982    11 Mar 2026 05:19:58.060           280.078
                     149    11 Mar 2026 18:17:25.480    11 Mar 2026 18:21:51.852           266.372
                     150    12 Mar 2026 04:56:25.106    12 Mar 2026 05:01:23.549           298.444
                     151    12 Mar 2026 17:58:30.281    12 Mar 2026 18:03:27.004           296.724
                     152    13 Mar 2026 04:37:53.775    13 Mar 2026 04:42:33.170           279.395
                     153    13 Mar 2026 17:39:50.998    13 Mar 2026 17:44:40.551           289.553
                     154    14 Mar 2026 04:19:47.588    14 Mar 2026 04:23:23.400           215.811
                     155    14 Mar 2026 17:21:30.519    14 Mar 2026 17:25:29.618           239.098
                     156    15 Mar 2026 05:34:52.379    15 Mar 2026 05:38:23.242           210.863
                     157    15 Mar 2026 17:04:00.327    15 Mar 2026 17:05:22.661            82.334
                     158    15 Mar 2026 18:36:57.844    15 Mar 2026 18:39:59.964           182.120
                     159    16 Mar 2026 05:15:31.427    16 Mar 2026 05:20:11.043           279.616
                     160    16 Mar 2026 18:17:38.921    16 Mar 2026 18:22:04.686           265.765
                     161    17 Mar 2026 04:56:38.284    17 Mar 2026 05:01:36.733           298.449
                     162    17 Mar 2026 17:58:43.518    17 Mar 2026 18:03:40.108           296.590
                     163    18 Mar 2026 04:38:06.698    18 Mar 2026 04:42:46.542           279.844
                     164    18 Mar 2026 17:40:04.049    18 Mar 2026 17:44:53.907           289.859
                     165    19 Mar 2026 04:20:00.141    19 Mar 2026 04:23:37.073           216.932
                     166    19 Mar 2026 17:21:43.289    19 Mar 2026 17:25:43.322           240.033
                     167    20 Mar 2026 05:35:06.265    20 Mar 2026 05:38:35.850           209.584
                     168    20 Mar 2026 17:04:11.423    20 Mar 2026 17:05:38.100            86.677
                     169    20 Mar 2026 18:37:11.709    20 Mar 2026 18:40:12.301           180.592
                     170    21 Mar 2026 05:15:44.875    21 Mar 2026 05:20:24.022           279.147
                     171    21 Mar 2026 18:17:52.363    21 Mar 2026 18:22:17.516           265.153
                     172    22 Mar 2026 04:56:51.465    22 Mar 2026 05:01:49.913           298.449
                     173    22 Mar 2026 17:58:56.757    22 Mar 2026 18:03:53.209           296.451
                     174    23 Mar 2026 04:38:19.623    23 Mar 2026 04:42:59.912           280.288
                     175    23 Mar 2026 17:40:17.102    23 Mar 2026 17:45:07.261           290.158
                     176    24 Mar 2026 04:20:12.697    24 Mar 2026 04:23:50.743           218.046
                     177    24 Mar 2026 17:21:56.065    24 Mar 2026 17:25:57.021           240.956
                     178    25 Mar 2026 05:35:20.162    25 Mar 2026 05:38:48.449           208.288
                     179    25 Mar 2026 17:04:22.640    25 Mar 2026 17:05:53.424            90.785
                     180    25 Mar 2026 18:37:25.584    25 Mar 2026 18:40:24.631           179.046
                     181    26 Mar 2026 05:15:58.328    26 Mar 2026 05:20:36.998           278.670
                     182    26 Mar 2026 18:18:05.809    26 Mar 2026 18:22:30.344           264.535
                     183    27 Mar 2026 04:57:04.649    27 Mar 2026 05:02:03.093           298.444
                     184    27 Mar 2026 17:59:10.000    27 Mar 2026 18:04:06.307           296.308

Global Statistics
-----------------
Min Duration          58    29 Jan 2026 17:02:40.418    29 Jan 2026 17:02:43.635             3.218
Max Duration         161    17 Mar 2026 04:56:38.284    17 Mar 2026 05:01:36.733           298.449
Mean Duration                                                                              243.779
Total Duration                                                                           44855.426
