FINCH_access/sat_access_analysis_NB/80degdataNB.txt

                                                                              27 Jan 2024 12:56:21
Place-BahenGS-Sensor-Sensor2-To-Satellite-Finch:  Access Summary Report


Sensor2-To-Finch
----------------
                  Access        Start Time (UTCG)           Stop Time (UTCG)        Duration (sec)
                  ------    ------------------------    ------------------------    --------------
                       1     1 Jan 2026 04:52:07.987     1 Jan 2026 04:59:33.209           445.223
                       2     1 Jan 2026 17:54:10.754     1 Jan 2026 18:01:36.146           445.391
                       3     2 Jan 2026 04:33:36.013     2 Jan 2026 04:40:44.332           428.319
                       4     2 Jan 2026 06:09:44.008     2 Jan 2026 06:12:44.441           180.433
                       5     2 Jan 2026 17:35:31.463     2 Jan 2026 17:42:48.681           437.218
                       6     2 Jan 2026 19:11:10.889     2 Jan 2026 19:13:51.279           160.389
                       7     3 Jan 2026 04:15:19.855     3 Jan 2026 04:21:45.405           385.551
                       8     3 Jan 2026 05:49:36.356     3 Jan 2026 05:55:08.128           331.773
                       9     3 Jan 2026 17:17:02.872     3 Jan 2026 17:23:44.839           401.967
                      10     3 Jan 2026 18:51:24.026     3 Jan 2026 18:56:34.817           310.791
                      11     4 Jan 2026 03:57:23.944     4 Jan 2026 04:02:32.109           308.165
                      12     4 Jan 2026 05:30:11.579     4 Jan 2026 05:36:54.866           403.287
                      13     4 Jan 2026 16:58:50.150     4 Jan 2026 17:04:19.363           329.213
                      14     4 Jan 2026 18:32:11.224     4 Jan 2026 18:38:38.263           387.039
                      15     5 Jan 2026 03:40:09.546     5 Jan 2026 03:42:43.351           153.806
                      16     5 Jan 2026 05:11:08.197     5 Jan 2026 05:18:25.951           437.754
                      17     5 Jan 2026 16:41:15.808     5 Jan 2026 16:44:09.584           173.776
                      18     5 Jan 2026 18:13:12.588     5 Jan 2026 18:20:21.656           429.068
                      19     6 Jan 2026 04:52:21.133     6 Jan 2026 04:59:46.412           445.279
                      20     6 Jan 2026 17:54:23.954     6 Jan 2026 18:01:49.296           445.342
                      21     7 Jan 2026 04:33:48.984     7 Jan 2026 04:40:57.643           428.659
                      22     7 Jan 2026 06:09:58.799     7 Jan 2026 06:12:56.269           177.470
                      23     7 Jan 2026 17:35:44.549     7 Jan 2026 17:43:02.011           437.462
                      24     7 Jan 2026 19:11:25.398     7 Jan 2026 19:14:02.844           157.447
                      25     8 Jan 2026 04:15:32.625     8 Jan 2026 04:21:58.849           386.224
                      26     8 Jan 2026 05:49:50.206     8 Jan 2026 05:55:20.832           330.626
                      27     8 Jan 2026 17:17:15.813     8 Jan 2026 17:23:58.381           402.567
                      28     8 Jan 2026 18:51:37.690     8 Jan 2026 18:56:47.298           309.607
                      29     9 Jan 2026 03:57:36.420     9 Jan 2026 04:02:45.775           309.355
                      30     9 Jan 2026 05:30:25.117     9 Jan 2026 05:37:07.811           402.695
                      31     9 Jan 2026 16:59:02.844     9 Jan 2026 17:04:33.218           330.374
                      32     9 Jan 2026 18:32:24.666     9 Jan 2026 18:38:51.035           386.369
                      33    10 Jan 2026 03:40:21.078    10 Jan 2026 03:42:57.889           156.811
                      34    10 Jan 2026 05:11:21.524    10 Jan 2026 05:18:39.039           437.515
                      35    10 Jan 2026 16:41:27.592    10 Jan 2026 16:44:24.422           176.830
                      36    10 Jan 2026 18:13:25.898    10 Jan 2026 18:20:34.629           428.731
                      37    11 Jan 2026 04:52:34.282    11 Jan 2026 04:59:59.613           445.331
                      38    11 Jan 2026 17:54:37.155    11 Jan 2026 18:02:02.446           445.290
                      39    12 Jan 2026 04:34:01.957    12 Jan 2026 04:41:10.953           428.996
                      40    12 Jan 2026 06:10:13.631    12 Jan 2026 06:13:08.065           174.434
                      41    12 Jan 2026 17:35:57.639    12 Jan 2026 17:43:15.339           437.701
                      42    12 Jan 2026 19:11:39.935    12 Jan 2026 19:14:14.377           154.442
                      43    13 Jan 2026 04:15:45.398    13 Jan 2026 04:22:12.292           386.895
                      44    13 Jan 2026 05:50:04.064    13 Jan 2026 05:55:33.532           329.468
                      45    13 Jan 2026 17:17:28.759    13 Jan 2026 17:24:11.921           403.162
                      46    13 Jan 2026 18:51:51.359    13 Jan 2026 18:56:59.775           308.416
                      47    14 Jan 2026 03:57:48.902    14 Jan 2026 04:02:59.438           310.537
                      48    14 Jan 2026 05:30:38.659    14 Jan 2026 05:37:20.756           402.097
                      49    14 Jan 2026 16:59:15.543    14 Jan 2026 17:04:47.073           331.530
                      50    14 Jan 2026 18:32:38.111    14 Jan 2026 18:39:03.805           385.694
                      51    15 Jan 2026 03:40:32.644    15 Jan 2026 03:43:12.398           159.754
                      52    15 Jan 2026 05:11:34.855    15 Jan 2026 05:18:52.128           437.273
                      53    15 Jan 2026 16:41:39.407    15 Jan 2026 16:44:39.230           179.823
                      54    15 Jan 2026 18:13:39.211    15 Jan 2026 18:20:47.601           428.390
                      55    16 Jan 2026 04:52:47.434    16 Jan 2026 05:00:12.815           445.381
                      56    16 Jan 2026 17:54:50.359    16 Jan 2026 18:02:15.594           445.235
                      57    17 Jan 2026 04:34:14.933    17 Jan 2026 04:41:24.263           429.330
                      58    17 Jan 2026 06:10:28.495    17 Jan 2026 06:13:19.831           171.336
                      59    17 Jan 2026 17:36:10.730    17 Jan 2026 17:43:28.667           437.938
                      60    17 Jan 2026 19:11:54.503    17 Jan 2026 19:14:25.880           151.377
                      61    18 Jan 2026 04:15:58.174    18 Jan 2026 04:22:25.734           387.560
                      62    18 Jan 2026 05:50:17.926    18 Jan 2026 05:55:46.226           328.300
                      63    18 Jan 2026 17:17:41.706    18 Jan 2026 17:24:25.459           403.753
                      64    18 Jan 2026 18:52:05.033    18 Jan 2026 18:57:12.248           307.215
                      65    19 Jan 2026 03:58:01.389    19 Jan 2026 04:03:13.098           311.709
                      66    19 Jan 2026 05:30:52.204    19 Jan 2026 05:37:33.699           401.495
                      67    19 Jan 2026 16:59:28.246    19 Jan 2026 17:05:00.923           332.677
                      68    19 Jan 2026 18:32:51.559    19 Jan 2026 18:39:16.572           385.013
                      69    20 Jan 2026 03:40:44.238    20 Jan 2026 03:43:26.874           162.635
                      70    20 Jan 2026 05:11:48.188    20 Jan 2026 05:19:05.214           437.027
                      71    20 Jan 2026 16:41:51.251    20 Jan 2026 16:44:54.009           182.758
                      72    20 Jan 2026 18:13:52.524    20 Jan 2026 18:21:00.570           428.046
                      73    21 Jan 2026 04:53:00.587    21 Jan 2026 05:00:26.014           445.427
                      74    21 Jan 2026 17:55:03.563    21 Jan 2026 18:02:28.739           445.176
                      75    22 Jan 2026 04:34:27.911    22 Jan 2026 04:41:37.570           429.659
                      76    22 Jan 2026 06:10:43.390    22 Jan 2026 06:13:31.563           168.174
                      77    22 Jan 2026 17:36:23.821    22 Jan 2026 17:43:41.992           438.171
                      78    22 Jan 2026 19:12:09.111    22 Jan 2026 19:14:37.344           148.233
                      79    23 Jan 2026 04:16:10.952    23 Jan 2026 04:22:39.171           388.218
                      80    23 Jan 2026 05:50:31.793    23 Jan 2026 05:55:58.914           327.122
                      81    23 Jan 2026 17:17:54.654    23 Jan 2026 17:24:38.993           404.338
                      82    23 Jan 2026 18:52:18.709    23 Jan 2026 18:57:24.715           306.006
                      83    24 Jan 2026 03:58:13.883    24 Jan 2026 04:03:26.753           312.870
                      84    24 Jan 2026 05:31:05.751    24 Jan 2026 05:37:46.639           400.888
                      85    24 Jan 2026 16:59:40.953    24 Jan 2026 17:05:14.767           333.814
                      86    24 Jan 2026 18:33:05.007    24 Jan 2026 18:39:29.336           384.329
                      87    25 Jan 2026 03:40:55.867    25 Jan 2026 03:43:41.324           165.457
                      88    25 Jan 2026 05:12:01.522    25 Jan 2026 05:19:18.300           436.778
                      89    25 Jan 2026 16:42:03.124    25 Jan 2026 16:45:08.757           185.633
                      90    25 Jan 2026 18:14:05.839    25 Jan 2026 18:21:13.537           427.698
                      91    26 Jan 2026 04:53:13.742    26 Jan 2026 05:00:39.212           445.470
                      92    26 Jan 2026 17:55:16.769    26 Jan 2026 18:02:41.883           445.114
                      93    27 Jan 2026 04:34:40.891    27 Jan 2026 04:41:50.878           429.986
                      94    27 Jan 2026 06:10:58.324    27 Jan 2026 06:13:43.258           164.934
                      95    27 Jan 2026 17:36:36.916    27 Jan 2026 17:43:55.313           438.397
                      96    27 Jan 2026 19:12:23.755    27 Jan 2026 19:14:48.775           145.020
                      97    28 Jan 2026 04:16:23.734    28 Jan 2026 04:22:52.610           388.876
                      98    28 Jan 2026 05:50:45.667    28 Jan 2026 05:56:11.599           325.932
                      99    28 Jan 2026 17:18:07.607    28 Jan 2026 17:24:52.525           404.918
                     100    28 Jan 2026 18:52:32.389    28 Jan 2026 18:57:37.179           304.790
                     101    29 Jan 2026 03:58:26.379    29 Jan 2026 04:03:40.408           314.029
                     102    29 Jan 2026 05:31:19.303    29 Jan 2026 05:37:59.578           400.275
                     103    29 Jan 2026 16:59:53.666    29 Jan 2026 17:05:28.605           334.940
                     104    29 Jan 2026 18:33:18.459    29 Jan 2026 18:39:42.100           383.640
                     105    30 Jan 2026 03:41:07.520    30 Jan 2026 03:43:55.749           168.230
                     106    30 Jan 2026 05:12:14.861    30 Jan 2026 05:19:31.386           436.525
                     107    30 Jan 2026 16:42:15.025    30 Jan 2026 16:45:23.481           188.456
                     108    30 Jan 2026 18:14:19.156    30 Jan 2026 18:21:26.503           427.347
                     109    31 Jan 2026 04:53:26.901    31 Jan 2026 05:00:52.411           445.510
                     110    31 Jan 2026 17:55:29.977    31 Jan 2026 18:02:55.025           445.049
                     111     1 Feb 2026 04:34:53.875     1 Feb 2026 04:42:04.184           430.309
                     112     1 Feb 2026 06:11:13.296     1 Feb 2026 06:13:54.918           161.622
                     113     1 Feb 2026 17:36:50.012     1 Feb 2026 17:44:08.635           438.624
                     114     1 Feb 2026 19:12:38.440     1 Feb 2026 19:15:00.163           141.723
                     115     2 Feb 2026 04:16:36.519     2 Feb 2026 04:23:06.047           389.528
                     116     2 Feb 2026 05:50:59.545     2 Feb 2026 05:56:24.280           324.735
                     117     2 Feb 2026 17:18:20.560     2 Feb 2026 17:25:06.055           405.495
                     118     2 Feb 2026 18:52:46.075     2 Feb 2026 18:57:49.637           303.563
                     119     3 Feb 2026 03:58:38.879     3 Feb 2026 04:03:54.057           315.178
                     120     3 Feb 2026 05:31:32.857     3 Feb 2026 05:38:12.514           399.658
                     121     3 Feb 2026 17:00:06.381     3 Feb 2026 17:05:42.441           336.060
                     122     3 Feb 2026 18:33:31.913     3 Feb 2026 18:39:54.859           382.946
                     123     4 Feb 2026 03:41:19.198     4 Feb 2026 03:44:10.146           170.948
                     124     4 Feb 2026 05:12:28.200     4 Feb 2026 05:19:44.469           436.269
                     125     4 Feb 2026 16:42:26.949     4 Feb 2026 16:45:38.178           191.229
                     126     4 Feb 2026 18:14:32.474     4 Feb 2026 18:21:39.466           426.992
                     127     5 Feb 2026 04:53:40.061     5 Feb 2026 05:01:05.607           445.546
                     128     5 Feb 2026 17:55:43.185     5 Feb 2026 18:03:08.165           444.980
                     129     6 Feb 2026 04:35:06.858     6 Feb 2026 04:42:17.488           430.629
                     130     6 Feb 2026 06:11:28.308     6 Feb 2026 06:14:06.535           158.227
                     131     6 Feb 2026 17:37:03.108     6 Feb 2026 17:44:21.951           438.843
                     132     6 Feb 2026 19:12:53.163     6 Feb 2026 19:15:11.509           138.346
                     133     7 Feb 2026 04:16:49.305     7 Feb 2026 04:23:19.481           390.177
                     134     7 Feb 2026 05:51:13.429     7 Feb 2026 05:56:36.955           323.527
                     135     7 Feb 2026 17:18:33.516     7 Feb 2026 17:25:19.580           406.065
                     136     7 Feb 2026 18:52:59.762     7 Feb 2026 18:58:02.091           302.329
                     137     8 Feb 2026 03:58:51.381     8 Feb 2026 04:04:07.703           316.322
                     138     8 Feb 2026 05:31:46.413     8 Feb 2026 05:38:25.448           399.035
                     139     8 Feb 2026 17:00:19.102     8 Feb 2026 17:05:56.271           337.169
                     140     8 Feb 2026 18:33:45.367     8 Feb 2026 18:40:07.616           382.249
                     141     9 Feb 2026 03:41:30.898     9 Feb 2026 03:44:24.524           173.625
                     142     9 Feb 2026 05:12:41.542     9 Feb 2026 05:19:57.550           436.009
                     143     9 Feb 2026 16:42:38.900     9 Feb 2026 16:45:52.848           193.948
                     144     9 Feb 2026 18:14:45.793     9 Feb 2026 18:21:52.428           426.635
                     145    10 Feb 2026 04:53:53.223    10 Feb 2026 05:01:18.802           445.579
                     146    10 Feb 2026 17:55:56.395    10 Feb 2026 18:03:21.303           444.908
                     147    11 Feb 2026 04:35:19.846    11 Feb 2026 04:42:30.792           430.946
                     148    11 Feb 2026 06:11:43.363    11 Feb 2026 06:14:18.106           154.742
                     149    11 Feb 2026 17:37:16.207    11 Feb 2026 17:44:35.270           439.063
                     150    11 Feb 2026 19:13:07.928    11 Feb 2026 19:15:22.812           134.884
                     151    12 Feb 2026 04:17:02.094    12 Feb 2026 04:23:32.916           390.822
                     152    12 Feb 2026 05:51:27.319    12 Feb 2026 05:56:49.626           322.307
                     153    12 Feb 2026 17:18:46.475    12 Feb 2026 17:25:33.105           406.630
                     154    12 Feb 2026 18:53:13.454    12 Feb 2026 18:58:14.541           301.087
                     155    13 Feb 2026 03:59:03.891    13 Feb 2026 04:04:21.347           317.457
                     156    13 Feb 2026 05:31:59.974    13 Feb 2026 05:38:38.380           398.406
                     157    13 Feb 2026 17:00:31.827    13 Feb 2026 17:06:10.098           338.270
                     158    13 Feb 2026 18:33:58.825    13 Feb 2026 18:40:20.372           381.547
                     159    14 Feb 2026 03:41:42.625    14 Feb 2026 03:44:38.878           176.253
                     160    14 Feb 2026 05:12:54.887    14 Feb 2026 05:20:10.632           435.745
                     161    14 Feb 2026 16:42:50.874    14 Feb 2026 16:46:07.496           196.623
                     162    14 Feb 2026 18:14:59.115    14 Feb 2026 18:22:05.388           426.273
                     163    15 Feb 2026 04:54:06.388    15 Feb 2026 05:01:31.997           445.609
                     164    15 Feb 2026 17:56:09.607    15 Feb 2026 18:03:34.440           444.833
                     165    16 Feb 2026 04:35:32.835    16 Feb 2026 04:42:44.094           431.259
                     166    16 Feb 2026 06:11:58.468    16 Feb 2026 06:14:29.637           151.169
                     167    16 Feb 2026 17:37:29.307    16 Feb 2026 17:44:48.585           439.278
                     168    16 Feb 2026 19:13:22.750    16 Feb 2026 19:15:34.059           131.309
                     169    17 Feb 2026 04:17:14.886    17 Feb 2026 04:23:46.347           391.461
                     170    17 Feb 2026 05:51:41.214    17 Feb 2026 05:57:02.292           321.078
                     171    17 Feb 2026 17:18:59.434    17 Feb 2026 17:25:46.626           407.191
                     172    17 Feb 2026 18:53:27.151    17 Feb 2026 18:58:26.985           299.835
                     173    18 Feb 2026 03:59:16.405    18 Feb 2026 04:04:34.987           318.582
                     174    18 Feb 2026 05:32:13.537    18 Feb 2026 05:38:51.310           397.773
                     175    18 Feb 2026 17:00:44.555    18 Feb 2026 17:06:23.919           339.363
                     176    18 Feb 2026 18:34:12.283    18 Feb 2026 18:40:33.123           380.840
                     177    19 Feb 2026 03:41:54.375    19 Feb 2026 03:44:53.208           178.833
                     178    19 Feb 2026 05:13:08.233    19 Feb 2026 05:20:23.710           435.477
                     179    19 Feb 2026 16:43:02.868    19 Feb 2026 16:46:22.120           199.252
                     180    19 Feb 2026 18:15:12.436    19 Feb 2026 18:22:18.349           425.912
                     181    20 Feb 2026 04:54:19.553    20 Feb 2026 05:01:45.189           445.635
                     182    20 Feb 2026 17:56:22.819    20 Feb 2026 18:03:47.573           444.754
                     183    21 Feb 2026 04:35:45.825    21 Feb 2026 04:42:57.394           431.569
                     184    21 Feb 2026 06:12:13.622    21 Feb 2026 06:14:41.116           147.494
                     185    21 Feb 2026 17:37:42.408    21 Feb 2026 17:45:01.897           439.489
                     186    21 Feb 2026 19:13:37.621    21 Feb 2026 19:15:45.255           127.634
                     187    22 Feb 2026 04:17:27.680    22 Feb 2026 04:23:59.776           392.096
                     188    22 Feb 2026 05:51:55.115    22 Feb 2026 05:57:14.952           319.837
                     189    22 Feb 2026 17:19:12.397    22 Feb 2026 17:26:00.143           407.746
                     190    22 Feb 2026 18:53:40.849    22 Feb 2026 18:58:39.425           298.576
                     191    23 Feb 2026 03:59:28.922    23 Feb 2026 04:04:48.624           319.702
                     192    23 Feb 2026 05:32:27.103    23 Feb 2026 05:39:04.237           397.134
                     193    23 Feb 2026 17:00:57.289    23 Feb 2026 17:06:37.734           340.446
                     194    23 Feb 2026 18:34:25.743    23 Feb 2026 18:40:45.873           380.130
                     195    24 Feb 2026 03:42:06.144    24 Feb 2026 03:45:07.521           181.376
                     196    24 Feb 2026 05:13:21.583    24 Feb 2026 05:20:36.788           435.205
                     197    24 Feb 2026 16:43:14.888    24 Feb 2026 16:46:36.720           201.832
                     198    24 Feb 2026 18:15:25.760    24 Feb 2026 18:22:31.304           425.545
                     199    25 Feb 2026 04:54:32.722    25 Feb 2026 05:01:58.381           445.659
                     200    25 Feb 2026 17:56:36.033    25 Feb 2026 18:04:00.706           444.673
                     201    26 Feb 2026 04:35:58.819    26 Feb 2026 04:43:10.695           431.875
                     202    26 Feb 2026 06:12:28.834    26 Feb 2026 06:14:52.539           143.705
                     203    26 Feb 2026 17:37:55.513    26 Feb 2026 17:45:15.208           439.696
                     204    26 Feb 2026 19:13:52.552    26 Feb 2026 19:15:56.393           123.841
                     205    27 Feb 2026 04:17:40.478    27 Feb 2026 04:24:13.206           392.728
                     206    27 Feb 2026 05:52:09.025    27 Feb 2026 05:57:27.608           318.584
                     207    27 Feb 2026 17:19:25.362    27 Feb 2026 17:26:13.659           408.297
                     208    27 Feb 2026 18:53:54.554    27 Feb 2026 18:58:51.861           297.307
                     209    28 Feb 2026 03:59:41.445    28 Feb 2026 04:05:02.259           320.815
                     210    28 Feb 2026 05:32:40.673    28 Feb 2026 05:39:17.163           396.490
                     211    28 Feb 2026 17:01:10.026    28 Feb 2026 17:06:51.547           341.521
                     212    28 Feb 2026 18:34:39.207    28 Feb 2026 18:40:58.621           379.414
                     213     1 Mar 2026 03:42:17.937     1 Mar 2026 03:45:21.812           183.875
                     214     1 Mar 2026 05:13:34.935     1 Mar 2026 05:20:49.865           434.930
                     215     1 Mar 2026 16:43:26.926     1 Mar 2026 16:46:51.302           204.376
                     216     1 Mar 2026 18:15:39.085     1 Mar 2026 18:22:44.258           425.173
                     217     2 Mar 2026 04:54:45.893     2 Mar 2026 05:02:11.571           445.678
                     218     2 Mar 2026 17:56:49.248     2 Mar 2026 18:04:13.836           444.588
                     219     3 Mar 2026 04:36:11.815     3 Mar 2026 04:43:23.993           432.178
                     220     3 Mar 2026 06:12:44.101     3 Mar 2026 06:15:03.907           139.806
                     221     3 Mar 2026 17:38:08.617     3 Mar 2026 17:45:28.511           439.894
                     222     3 Mar 2026 19:14:07.548     3 Mar 2026 19:16:07.462           119.914
                     223     4 Mar 2026 04:17:53.277     4 Mar 2026 04:24:26.627           393.349
                     224     4 Mar 2026 05:52:22.937     4 Mar 2026 05:57:40.259           317.322
                     225     4 Mar 2026 17:19:38.328     4 Mar 2026 17:26:27.171           408.843
                     226     4 Mar 2026 18:54:08.266     4 Mar 2026 18:59:04.289           296.023
                     227     5 Mar 2026 03:59:53.970     5 Mar 2026 04:05:15.889           321.919
                     228     5 Mar 2026 05:32:54.245     5 Mar 2026 05:39:30.086           395.841
                     229     5 Mar 2026 17:01:22.766     5 Mar 2026 17:07:05.353           342.587
                     230     5 Mar 2026 18:34:52.671     5 Mar 2026 18:41:11.364           378.693
                     231     6 Mar 2026 03:42:29.748     6 Mar 2026 03:45:36.084           186.336
                     232     6 Mar 2026 05:13:48.288     6 Mar 2026 05:21:02.939           434.651
                     233     6 Mar 2026 16:43:38.984     6 Mar 2026 16:47:05.860           206.876
                     234     6 Mar 2026 18:15:52.411     6 Mar 2026 18:22:57.208           424.797
                     235     7 Mar 2026 04:54:59.065     7 Mar 2026 05:02:24.760           445.695
                     236     7 Mar 2026 17:57:02.464     7 Mar 2026 18:04:26.963           444.500
                     237     8 Mar 2026 04:36:24.812     8 Mar 2026 04:43:37.290           432.478
                     238     8 Mar 2026 06:12:59.434     8 Mar 2026 06:15:15.209           135.775
                     239     8 Mar 2026 17:38:21.722     8 Mar 2026 17:45:41.817           440.094
                     240     8 Mar 2026 19:14:22.609     8 Mar 2026 19:16:18.465           115.856
                     241     9 Mar 2026 04:18:06.079     9 Mar 2026 04:24:40.052           393.974
                     242     9 Mar 2026 05:52:36.857     9 Mar 2026 05:57:52.904           316.048
                     243     9 Mar 2026 17:19:51.297     9 Mar 2026 17:26:40.676           409.380
                     244     9 Mar 2026 18:54:21.977     9 Mar 2026 18:59:16.715           294.737
                     245    10 Mar 2026 04:00:06.500    10 Mar 2026 04:05:29.516           323.017
                     246    10 Mar 2026 05:33:07.820    10 Mar 2026 05:39:43.006           395.185
                     247    10 Mar 2026 17:01:35.512    10 Mar 2026 17:07:19.155           343.644
                     248    10 Mar 2026 18:35:06.137    10 Mar 2026 18:41:24.106           377.969
                     249    11 Mar 2026 03:42:41.577    11 Mar 2026 03:45:50.340           188.763
                     250    11 Mar 2026 05:14:01.644    11 Mar 2026 05:21:16.011           434.367
                     251    11 Mar 2026 16:43:51.063    11 Mar 2026 16:47:20.398           209.336
                     252    11 Mar 2026 18:16:05.738    11 Mar 2026 18:23:10.157           424.419
                     253    12 Mar 2026 04:55:12.239    12 Mar 2026 05:02:37.948           445.708
                     254    12 Mar 2026 17:57:15.682    12 Mar 2026 18:04:40.094           444.412
                     255    13 Mar 2026 04:36:37.811    13 Mar 2026 04:43:50.586           432.775
                     256    13 Mar 2026 06:13:14.842    13 Mar 2026 06:15:26.441           131.599
                     257    13 Mar 2026 17:38:34.830    13 Mar 2026 17:45:55.122           440.292
                     258    13 Mar 2026 19:14:37.750    13 Mar 2026 19:16:29.389           111.639
                     259    14 Mar 2026 04:18:18.883    14 Mar 2026 04:24:53.478           394.594
                     260    14 Mar 2026 05:52:50.778    14 Mar 2026 05:58:05.545           314.768
                     261    14 Mar 2026 17:20:04.268    14 Mar 2026 17:26:54.184           409.916
                     262    14 Mar 2026 18:54:35.694    14 Mar 2026 18:59:29.134           293.441
                     263    15 Mar 2026 04:00:19.034    15 Mar 2026 04:05:43.140           324.106
                     264    15 Mar 2026 05:33:21.399    15 Mar 2026 05:39:55.924           394.525
                     265    15 Mar 2026 17:01:48.260    15 Mar 2026 17:07:32.953           344.693
                     266    15 Mar 2026 18:35:19.605    15 Mar 2026 18:41:36.845           377.240
                     267    16 Mar 2026 03:42:53.427    16 Mar 2026 03:46:04.577           191.150
                     268    16 Mar 2026 05:14:15.003    16 Mar 2026 05:21:29.083           434.080
                     269    16 Mar 2026 16:44:03.158    16 Mar 2026 16:47:34.919           211.761
                     270    16 Mar 2026 18:16:19.067    16 Mar 2026 18:23:23.104           424.037
                     271    17 Mar 2026 04:55:25.416    17 Mar 2026 05:02:51.134           445.718
                     272    17 Mar 2026 17:57:28.901    17 Mar 2026 18:04:53.218           444.317
                     273    18 Mar 2026 04:36:50.813    18 Mar 2026 04:44:03.880           433.067
                     274    18 Mar 2026 06:13:30.317    18 Mar 2026 06:15:37.601           127.284
                     275    18 Mar 2026 17:38:47.939    18 Mar 2026 17:46:08.424           440.485
                     276    18 Mar 2026 19:14:52.980    18 Mar 2026 19:16:40.221           107.241
                     277    19 Mar 2026 04:18:31.690    19 Mar 2026 04:25:06.899           395.209
                     278    19 Mar 2026 05:53:04.707    19 Mar 2026 05:58:18.181           313.474
                     279    19 Mar 2026 17:20:17.239    19 Mar 2026 17:27:07.687           410.448
                     280    19 Mar 2026 18:54:49.413    19 Mar 2026 18:59:41.548           292.134
                     281    20 Mar 2026 04:00:31.572    20 Mar 2026 04:05:56.760           325.188
                     282    20 Mar 2026 05:33:34.980    20 Mar 2026 05:40:08.837           393.857
                     283    20 Mar 2026 17:02:01.012    20 Mar 2026 17:07:46.745           345.733
                     284    20 Mar 2026 18:35:33.074    20 Mar 2026 18:41:49.580           376.506
                     285    21 Mar 2026 03:43:05.293    21 Mar 2026 03:46:18.796           193.503
                     286    21 Mar 2026 05:14:28.362    21 Mar 2026 05:21:42.152           433.790
                     287    21 Mar 2026 16:44:15.272    21 Mar 2026 16:47:49.419           214.147
                     288    21 Mar 2026 18:16:32.396    21 Mar 2026 18:23:36.048           423.652
                     289    22 Mar 2026 04:55:38.593    22 Mar 2026 05:03:04.318           445.725
                     290    22 Mar 2026 17:57:42.120    22 Mar 2026 18:05:06.339           444.220
                     291    23 Mar 2026 04:37:03.815    23 Mar 2026 04:44:17.172           433.357
                     292    23 Mar 2026 06:13:45.880    23 Mar 2026 06:15:48.673           122.793
                     293    23 Mar 2026 17:39:01.049    23 Mar 2026 17:46:21.722           440.673
                     294    23 Mar 2026 19:15:08.302    23 Mar 2026 19:16:50.960           102.659
                     295    24 Mar 2026 04:18:44.499    24 Mar 2026 04:25:20.318           395.820
                     296    24 Mar 2026 05:53:18.644    24 Mar 2026 05:58:30.810           312.166
                     297    24 Mar 2026 17:20:30.214    24 Mar 2026 17:27:21.188           410.974
                     298    24 Mar 2026 18:55:03.138    24 Mar 2026 18:59:53.957           290.819
                     299    25 Mar 2026 04:00:44.113    25 Mar 2026 04:06:10.373           326.261
                     300    25 Mar 2026 05:33:48.565    25 Mar 2026 05:40:21.748           393.183
                     301    25 Mar 2026 17:02:13.769    25 Mar 2026 17:08:00.533           346.764
                     302    25 Mar 2026 18:35:46.545    25 Mar 2026 18:42:02.314           375.768
                     303    26 Mar 2026 03:43:17.175    26 Mar 2026 03:46:33.002           195.826
                     304    26 Mar 2026 05:14:41.725    26 Mar 2026 05:21:55.220           433.495
                     305    26 Mar 2026 16:44:27.404    26 Mar 2026 16:48:03.902           216.498
                     306    26 Mar 2026 18:16:45.728    26 Mar 2026 18:23:48.991           423.263
                     307    27 Mar 2026 04:55:51.774    27 Mar 2026 05:03:17.502           445.728
                     308    27 Mar 2026 17:57:55.341    27 Mar 2026 18:05:19.460           444.118

Global Statistics
-----------------
Min Duration         294    23 Mar 2026 19:15:08.302    23 Mar 2026 19:16:50.960           102.659
Max Duration         307    27 Mar 2026 04:55:51.774    27 Mar 2026 05:03:17.502           445.728
Mean Duration                                                                              341.628
Total Duration                                                                          105221.395
