HERON_access/Outputs/FINCH_Tx_GS_Rx_access.csv

"Access","Start Time (UTCG)","Stop Time (UTCG)","Duration (sec)"
1,1 Jan 2026 07:07:27.217,1 Jan 2026 07:14:58.981,451.764
2,1 Jan 2026 08:43:17.594,1 Jan 2026 08:48:47.174,329.579
3,1 Jan 2026 20:09:34.909,1 Jan 2026 20:14:50.770,315.861
4,1 Jan 2026 21:43:00.987,1 Jan 2026 21:49:38.516,397.530
5,2 Jan 2026 06:49:30.743,2 Jan 2026 06:55:48.483,377.740
6,2 Jan 2026 08:24:36.440,2 Jan 2026 08:30:21.024,344.583
7,2 Jan 2026 19:51:04.551,2 Jan 2026 19:56:18.760,314.209
8,2 Jan 2026 19:56:32.337,2 Jan 2026 19:56:50.260,17.922
9,2 Jan 2026 19:56:57.100,2 Jan 2026 19:57:03.110,6.010
10,2 Jan 2026 21:24:00.995,2 Jan 2026 21:30:31.450,390.455
11,3 Jan 2026 06:32:03.335,3 Jan 2026 06:32:06.068,2.732
12,3 Jan 2026 06:32:16.481,3 Jan 2026 06:32:50.754,34.273
13,3 Jan 2026 06:33:00.848,3 Jan 2026 06:34:01.010,60.162
14,3 Jan 2026 06:34:09.079,3 Jan 2026 06:35:26.533,77.453
15,3 Jan 2026 06:35:37.607,3 Jan 2026 06:35:40.852,3.245
16,3 Jan 2026 08:05:54.885,3 Jan 2026 08:11:45.252,350.367
17,3 Jan 2026 19:33:10.321,3 Jan 2026 19:33:21.916,11.594
18,3 Jan 2026 19:33:31.995,3 Jan 2026 19:34:17.451,45.455
19,3 Jan 2026 19:34:21.583,3 Jan 2026 19:34:35.872,14.289
20,3 Jan 2026 19:34:45.279,3 Jan 2026 19:35:30.277,44.998
21,3 Jan 2026 19:35:39.198,3 Jan 2026 19:37:27.294,108.096
22,3 Jan 2026 21:05:09.368,3 Jan 2026 21:11:22.563,373.195
23,4 Jan 2026 07:47:14.559,4 Jan 2026 07:53:01.736,347.177
24,4 Jan 2026 09:20:53.968,4 Jan 2026 09:24:04.666,190.697
25,4 Jan 2026 20:46:25.059,4 Jan 2026 20:52:14.004,348.946
26,4 Jan 2026 22:22:00.581,4 Jan 2026 22:23:28.722,88.141
27,4 Jan 2026 22:24:41.593,4 Jan 2026 22:25:59.340,77.747
28,5 Jan 2026 07:27:02.918,5 Jan 2026 07:34:10.878,427.961
29,5 Jan 2026 09:02:12.961,5 Jan 2026 09:05:20.096,187.135
30,5 Jan 2026 09:06:20.002,5 Jan 2026 09:07:11.728,51.726
31,5 Jan 2026 20:27:54.057,5 Jan 2026 20:27:56.416,2.360
32,5 Jan 2026 20:28:07.425,5 Jan 2026 20:33:03.825,296.400
33,5 Jan 2026 22:02:24.784,5 Jan 2026 22:08:34.938,370.154
34,6 Jan 2026 07:07:39.900,6 Jan 2026 07:15:11.771,451.871
35,6 Jan 2026 08:43:30.547,6 Jan 2026 08:49:00.062,329.515
36,6 Jan 2026 20:09:48.059,6 Jan 2026 20:15:02.898,314.839
37,6 Jan 2026 21:43:13.013,6 Jan 2026 21:49:50.193,397.180
38,7 Jan 2026 06:49:43.634,7 Jan 2026 06:56:01.251,377.617
39,7 Jan 2026 08:24:49.405,7 Jan 2026 08:30:33.857,344.452
40,7 Jan 2026 19:51:17.251,7 Jan 2026 19:56:30.829,313.578
41,7 Jan 2026 19:56:44.416,7 Jan 2026 19:57:01.517,17.101
42,7 Jan 2026 19:57:09.189,7 Jan 2026 19:57:15.206,6.017
43,7 Jan 2026 21:24:13.027,7 Jan 2026 21:30:43.109,390.081
44,8 Jan 2026 06:32:16.205,8 Jan 2026 06:32:18.819,2.614
45,8 Jan 2026 06:32:29.239,8 Jan 2026 06:33:03.515,34.277
46,8 Jan 2026 06:33:13.608,8 Jan 2026 06:34:13.774,60.166
47,8 Jan 2026 06:34:21.842,8 Jan 2026 06:35:39.295,77.452
48,8 Jan 2026 06:35:50.369,8 Jan 2026 06:35:52.978,2.609
49,8 Jan 2026 08:06:07.851,8 Jan 2026 08:11:58.040,350.190
50,8 Jan 2026 19:33:22.375,8 Jan 2026 19:33:33.916,11.541
51,8 Jan 2026 19:33:43.992,8 Jan 2026 19:34:28.182,44.190
52,8 Jan 2026 19:34:36.780,8 Jan 2026 19:34:47.862,11.082
53,8 Jan 2026 19:34:57.272,8 Jan 2026 19:35:42.275,45.003
54,8 Jan 2026 19:35:51.196,8 Jan 2026 19:37:39.111,107.915
55,8 Jan 2026 21:05:21.392,8 Jan 2026 21:11:34.208,372.816
56,9 Jan 2026 07:47:27.529,9 Jan 2026 07:53:14.484,346.955
57,9 Jan 2026 09:21:06.440,9 Jan 2026 09:24:17.395,190.955
58,9 Jan 2026 20:46:37.070,9 Jan 2026 20:52:25.636,348.567
59,9 Jan 2026 22:22:12.246,9 Jan 2026 22:23:40.773,88.527
60,9 Jan 2026 22:24:53.567,9 Jan 2026 22:26:11.760,78.193
61,10 Jan 2026 07:27:15.485,10 Jan 2026 07:34:23.591,428.106
62,10 Jan 2026 09:02:25.919,10 Jan 2026 09:05:32.481,186.561
63,10 Jan 2026 09:06:32.639,10 Jan 2026 09:07:24.619,51.980
64,10 Jan 2026 20:28:06.862,10 Jan 2026 20:28:08.181,1.318
65,10 Jan 2026 20:28:20.046,10 Jan 2026 20:33:15.445,295.400
66,10 Jan 2026 22:02:36.621,10 Jan 2026 22:05:34.719,178.097
67,10 Jan 2026 22:05:35.560,10 Jan 2026 22:08:47.096,191.537
68,11 Jan 2026 07:07:52.508,11 Jan 2026 07:15:24.453,451.944
69,11 Jan 2026 08:43:43.505,11 Jan 2026 08:49:12.854,329.349
70,11 Jan 2026 20:10:00.946,11 Jan 2026 20:15:14.919,313.973
71,11 Jan 2026 21:43:24.895,11 Jan 2026 21:50:01.829,396.934
72,12 Jan 2026 06:49:56.401,12 Jan 2026 06:51:24.532,88.131
73,12 Jan 2026 06:51:24.762,12 Jan 2026 06:56:13.910,289.148
74,12 Jan 2026 08:25:02.360,12 Jan 2026 08:30:46.579,344.220
75,12 Jan 2026 19:51:29.717,12 Jan 2026 19:56:42.802,313.085
76,12 Jan 2026 19:56:56.393,12 Jan 2026 19:57:12.863,16.470
77,12 Jan 2026 19:57:21.189,12 Jan 2026 19:57:27.207,6.018
78,12 Jan 2026 21:24:24.922,12 Jan 2026 21:30:54.739,389.817
79,13 Jan 2026 06:32:28.923,13 Jan 2026 06:32:31.462,2.539
80,13 Jan 2026 06:32:41.889,13 Jan 2026 06:33:16.164,34.274
81,13 Jan 2026 06:33:26.259,13 Jan 2026 06:34:26.193,59.934
82,13 Jan 2026 06:34:34.490,13 Jan 2026 06:35:51.928,77.438
83,13 Jan 2026 06:36:02.997,13 Jan 2026 06:36:04.821,1.824
84,13 Jan 2026 08:06:20.802,13 Jan 2026 08:12:10.707,349.905
85,13 Jan 2026 19:33:34.368,13 Jan 2026 19:33:45.780,11.412
86,13 Jan 2026 19:33:55.860,13 Jan 2026 19:34:39.790,43.929
87,13 Jan 2026 19:34:51.323,13 Jan 2026 19:34:59.734,8.411
88,13 Jan 2026 19:35:09.146,13 Jan 2026 19:35:54.161,45.015
89,13 Jan 2026 19:36:03.085,13 Jan 2026 19:37:50.758,107.673
90,13 Jan 2026 21:05:33.289,13 Jan 2026 21:11:45.828,372.539
91,14 Jan 2026 07:47:40.463,14 Jan 2026 07:53:27.100,346.637
92,14 Jan 2026 09:21:18.737,14 Jan 2026 09:24:29.999,191.262
93,14 Jan 2026 20:46:48.958,14 Jan 2026 20:52:37.254,348.295
94,14 Jan 2026 22:22:23.814,14 Jan 2026 22:23:52.697,88.883
95,14 Jan 2026 22:25:05.428,14 Jan 2026 22:26:24.026,78.597
96,15 Jan 2026 07:27:27.937,15 Jan 2026 07:34:36.165,428.228
97,15 Jan 2026 09:02:38.839,15 Jan 2026 09:05:44.629,185.790
98,15 Jan 2026 09:06:45.137,15 Jan 2026 09:07:37.396,52.259
99,15 Jan 2026 20:28:19.400,15 Jan 2026 20:28:19.794,0.394
100,15 Jan 2026 20:28:32.388,15 Jan 2026 20:33:27.060,294.672
101,15 Jan 2026 22:02:48.353,15 Jan 2026 22:05:46.287,177.934
102,15 Jan 2026 22:05:47.737,15 Jan 2026 22:08:59.135,191.398
103,16 Jan 2026 07:08:05.002,16 Jan 2026 07:15:36.991,451.990
104,16 Jan 2026 08:43:56.415,16 Jan 2026 08:49:25.514,329.099
105,16 Jan 2026 20:10:13.519,16 Jan 2026 20:15:26.869,313.350
106,16 Jan 2026 21:43:36.674,16 Jan 2026 21:50:13.482,396.808
107,17 Jan 2026 06:50:09.019,17 Jan 2026 06:51:37.061,88.042
108,17 Jan 2026 06:51:37.989,17 Jan 2026 06:56:26.422,288.433
109,17 Jan 2026 08:25:15.249,17 Jan 2026 08:30:59.158,343.909
110,17 Jan 2026 19:51:41.941,17 Jan 2026 19:56:54.712,312.771
111,17 Jan 2026 19:57:08.322,17 Jan 2026 19:57:24.381,16.059
112,17 Jan 2026 19:57:33.133,17 Jan 2026 19:57:39.159,6.025
113,17 Jan 2026 21:24:36.722,17 Jan 2026 21:31:06.388,389.666
114,18 Jan 2026 06:32:41.471,18 Jan 2026 06:32:43.964,2.493
115,18 Jan 2026 06:32:54.395,18 Jan 2026 06:33:28.666,34.271
116,18 Jan 2026 06:33:38.764,18 Jan 2026 06:34:38.683,59.920
117,18 Jan 2026 06:34:46.982,18 Jan 2026 06:36:04.407,77.425
118,18 Jan 2026 06:36:15.473,18 Jan 2026 06:36:16.423,0.950
119,18 Jan 2026 08:06:33.668,18 Jan 2026 08:12:23.220,349.552
120,18 Jan 2026 19:33:46.334,18 Jan 2026 19:33:57.551,11.217
121,18 Jan 2026 19:34:07.636,18 Jan 2026 19:34:51.577,43.941
122,18 Jan 2026 19:35:04.385,18 Jan 2026 19:35:11.526,7.142
123,18 Jan 2026 19:35:20.939,18 Jan 2026 19:36:05.976,45.037
124,18 Jan 2026 19:36:14.907,18 Jan 2026 19:38:02.282,107.375
125,18 Jan 2026 21:05:45.094,18 Jan 2026 21:11:57.483,372.389
126,19 Jan 2026 07:47:53.308,19 Jan 2026 07:53:39.558,346.250
127,19 Jan 2026 09:21:30.840,19 Jan 2026 09:24:42.448,191.607
128,19 Jan 2026 20:47:00.768,19 Jan 2026 20:52:48.919,348.151
129,19 Jan 2026 22:22:35.342,19 Jan 2026 22:24:04.538,89.196
130,19 Jan 2026 22:25:17.218,19 Jan 2026 22:26:36.157,78.940
131,20 Jan 2026 07:27:40.234,20 Jan 2026 07:34:48.576,428.341
132,20 Jan 2026 09:02:51.671,20 Jan 2026 09:05:56.560,184.890
133,20 Jan 2026 09:06:57.474,20 Jan 2026 09:07:50.028,52.553
134,20 Jan 2026 20:28:44.486,20 Jan 2026 20:33:38.732,294.247
135,20 Jan 2026 22:03:00.026,20 Jan 2026 22:05:58.061,178.035
136,20 Jan 2026 22:05:59.579,20 Jan 2026 22:09:11.091,191.512
137,21 Jan 2026 07:08:17.489,21 Jan 2026 07:15:49.362,451.873
138,21 Jan 2026 08:44:09.215,21 Jan 2026 08:49:38.016,328.801
139,21 Jan 2026 20:10:25.769,21 Jan 2026 20:15:38.793,313.024
140,21 Jan 2026 21:43:48.394,21 Jan 2026 21:50:25.207,396.813
141,22 Jan 2026 06:50:21.476,22 Jan 2026 06:51:49.430,87.954
142,22 Jan 2026 06:51:51.218,22 Jan 2026 06:56:38.761,287.543
143,22 Jan 2026 08:25:28.023,22 Jan 2026 08:31:11.571,343.548
144,22 Jan 2026 19:51:53.927,22 Jan 2026 19:57:06.616,312.689
145,22 Jan 2026 19:57:20.237,22 Jan 2026 19:57:36.136,15.899
146,22 Jan 2026 19:57:45.079,22 Jan 2026 19:57:51.110,6.031
147,22 Jan 2026 21:24:48.467,22 Jan 2026 21:31:18.126,389.660
148,23 Jan 2026 06:32:53.853,23 Jan 2026 06:32:56.301,2.448
149,23 Jan 2026 06:33:06.740,23 Jan 2026 06:33:41.002,34.262
150,23 Jan 2026 06:33:51.101,23 Jan 2026 06:33:58.519,7.418
151,23 Jan 2026 06:33:59.837,23 Jan 2026 06:34:51.015,51.178
152,23 Jan 2026 06:34:59.311,23 Jan 2026 06:36:16.718,77.407
153,23 Jan 2026 08:06:46.413,23 Jan 2026 08:12:35.563,349.150
154,23 Jan 2026 19:33:58.329,23 Jan 2026 19:34:09.282,10.953
155,23 Jan 2026 19:34:19.367,23 Jan 2026 19:35:03.330,43.963
156,23 Jan 2026 19:35:16.139,23 Jan 2026 19:35:23.289,7.150
157,23 Jan 2026 19:35:32.707,23 Jan 2026 19:36:17.769,45.062
158,23 Jan 2026 19:36:26.705,23 Jan 2026 19:38:13.731,107.026
159,23 Jan 2026 21:05:56.855,23 Jan 2026 21:12:09.231,372.375
160,24 Jan 2026 07:48:06.016,24 Jan 2026 07:53:51.843,345.828
161,24 Jan 2026 09:21:42.744,24 Jan 2026 09:24:54.731,191.986
162,24 Jan 2026 20:47:12.547,24 Jan 2026 20:53:00.691,348.145
163,24 Jan 2026 22:22:46.883,24 Jan 2026 22:24:16.342,89.459
164,24 Jan 2026 22:25:28.978,24 Jan 2026 22:26:48.207,79.229
165,25 Jan 2026 07:27:52.350,25 Jan 2026 07:35:00.812,428.462
166,25 Jan 2026 09:03:04.357,25 Jan 2026 09:06:08.322,183.965
167,25 Jan 2026 09:07:09.633,25 Jan 2026 09:08:02.492,52.859
168,25 Jan 2026 20:28:56.355,25 Jan 2026 20:33:50.519,294.164
169,25 Jan 2026 22:03:11.690,25 Jan 2026 22:06:10.116,178.426
170,25 Jan 2026 22:06:11.110,25 Jan 2026 22:09:23.013,191.903
171,26 Jan 2026 07:08:30.057,26 Jan 2026 07:16:01.556,451.500
172,26 Jan 2026 08:44:21.867,26 Jan 2026 08:49:50.348,328.481
173,26 Jan 2026 20:10:37.717,26 Jan 2026 20:15:50.742,313.025
174,26 Jan 2026 21:44:00.106,26 Jan 2026 21:50:37.056,396.950
175,27 Jan 2026 06:50:33.765,27 Jan 2026 06:52:01.625,87.860
176,27 Jan 2026 06:52:04.298,27 Jan 2026 06:56:50.921,286.623
177,27 Jan 2026 08:25:40.645,27 Jan 2026 08:31:23.814,343.168
178,27 Jan 2026 19:52:05.719,27 Jan 2026 19:57:18.560,312.841
179,27 Jan 2026 19:57:32.197,27 Jan 2026 19:57:48.173,15.976
180,27 Jan 2026 19:57:57.067,27 Jan 2026 19:58:03.103,6.036
181,27 Jan 2026 21:25:00.210,27 Jan 2026 21:31:29.998,389.788
182,28 Jan 2026 06:33:06.083,28 Jan 2026 06:33:08.462,2.379
183,28 Jan 2026 06:33:18.912,28 Jan 2026 06:33:53.169,34.257
184,28 Jan 2026 06:34:03.266,28 Jan 2026 06:34:10.686,7.419
185,28 Jan 2026 06:34:14.800,28 Jan 2026 06:35:03.176,48.376
186,28 Jan 2026 06:35:11.470,28 Jan 2026 06:36:28.871,77.401
187,28 Jan 2026 08:06:58.993,28 Jan 2026 08:12:47.737,348.745
188,28 Jan 2026 19:34:10.407,28 Jan 2026 19:34:21.015,10.609
189,28 Jan 2026 19:34:31.103,28 Jan 2026 19:35:15.094,43.991
190,28 Jan 2026 19:35:27.915,28 Jan 2026 19:35:35.072,7.157
191,28 Jan 2026 19:35:44.498,28 Jan 2026 19:36:29.591,45.092
192,28 Jan 2026 19:36:38.535,28 Jan 2026 19:38:25.160,106.625
193,28 Jan 2026 21:06:08.626,28 Jan 2026 21:12:21.123,372.497
194,29 Jan 2026 07:48:18.553,29 Jan 2026 07:54:03.962,345.410
195,29 Jan 2026 09:21:54.468,29 Jan 2026 09:25:06.850,192.382
196,29 Jan 2026 20:47:24.347,29 Jan 2026 20:53:12.613,348.266
197,29 Jan 2026 22:22:58.496,29 Jan 2026 22:24:28.158,89.663
198,29 Jan 2026 22:25:40.763,29 Jan 2026 22:27:00.222,79.459
199,30 Jan 2026 07:28:04.284,30 Jan 2026 07:35:12.884,428.600
200,30 Jan 2026 09:03:16.878,30 Jan 2026 09:06:19.972,183.094
201,30 Jan 2026 09:07:21.633,30 Jan 2026 09:08:14.788,53.155
202,30 Jan 2026 20:29:08.049,30 Jan 2026 20:34:02.460,294.411
203,30 Jan 2026 22:03:23.404,30 Jan 2026 22:09:34.952,371.548
204,31 Jan 2026 07:08:42.998,31 Jan 2026 07:16:13.586,450.588
205,31 Jan 2026 08:44:34.347,31 Jan 2026 08:50:02.519,328.172
206,31 Jan 2026 20:10:49.406,31 Jan 2026 20:16:02.766,313.360
207,31 Jan 2026 21:44:11.866,31 Jan 2026 21:50:49.079,397.213
208,1 Feb 2026 06:50:45.909,1 Feb 2026 06:52:13.657,87.748
209,1 Feb 2026 06:52:17.164,1 Feb 2026 06:57:02.911,285.747
210,1 Feb 2026 08:25:53.082,1 Feb 2026 08:31:35.899,342.817
211,1 Feb 2026 19:52:17.366,1 Feb 2026 19:57:30.585,313.219
212,1 Feb 2026 19:57:44.239,1 Feb 2026 19:58:00.508,16.270
213,1 Feb 2026 19:58:09.146,1 Feb 2026 19:58:15.188,6.042
214,1 Feb 2026 21:25:12.006,1 Feb 2026 21:31:42.042,390.036
215,2 Feb 2026 06:33:18.192,2 Feb 2026 06:33:20.465,2.273
216,2 Feb 2026 06:33:30.922,2 Feb 2026 06:34:05.180,34.258
217,2 Feb 2026 06:34:15.279,2 Feb 2026 06:34:22.697,7.418
218,2 Feb 2026 06:34:29.413,2 Feb 2026 06:35:15.191,45.778
219,2 Feb 2026 06:35:23.488,2 Feb 2026 06:36:40.883,77.395
220,2 Feb 2026 08:07:11.384,2 Feb 2026 08:12:59.760,348.375
221,2 Feb 2026 19:34:22.606,2 Feb 2026 19:34:32.806,10.201
222,2 Feb 2026 19:34:42.901,2 Feb 2026 19:35:26.930,44.029
223,2 Feb 2026 19:35:39.760,2 Feb 2026 19:35:46.923,7.162
224,2 Feb 2026 19:35:56.357,2 Feb 2026 19:36:41.496,45.139
225,2 Feb 2026 19:36:50.446,2 Feb 2026 19:38:36.632,106.186
226,2 Feb 2026 21:06:20.457,2 Feb 2026 21:12:33.192,372.735
227,3 Feb 2026 07:48:30.901,3 Feb 2026 07:54:15.933,345.032
228,3 Feb 2026 09:22:06.038,3 Feb 2026 09:25:18.817,192.780
229,3 Feb 2026 20:47:36.219,3 Feb 2026 20:53:24.717,348.498
230,3 Feb 2026 22:23:10.233,3 Feb 2026 22:24:40.032,89.799
231,3 Feb 2026 22:25:52.629,3 Feb 2026 22:27:12.249,79.620
232,4 Feb 2026 07:28:16.034,4 Feb 2026 07:35:24.810,428.775
233,4 Feb 2026 09:03:29.205,4 Feb 2026 09:06:31.585,182.380
234,4 Feb 2026 09:07:33.490,4 Feb 2026 09:08:26.928,53.438
235,4 Feb 2026 20:29:19.616,4 Feb 2026 20:34:14.592,294.975
236,4 Feb 2026 22:03:35.215,4 Feb 2026 22:09:46.955,371.740
237,5 Feb 2026 07:08:55.712,5 Feb 2026 07:16:25.471,449.759
238,5 Feb 2026 08:44:46.629,5 Feb 2026 08:50:14.543,327.915
239,5 Feb 2026 20:11:00.899,5 Feb 2026 20:16:14.896,313.997
240,5 Feb 2026 21:44:23.720,5 Feb 2026 21:51:01.287,397.567
241,6 Feb 2026 06:50:57.934,6 Feb 2026 06:52:25.547,87.613
242,6 Feb 2026 06:52:29.781,6 Feb 2026 06:57:14.754,284.973
243,6 Feb 2026 08:26:05.324,6 Feb 2026 08:31:47.850,342.526
244,6 Feb 2026 19:52:28.932,6 Feb 2026 19:57:42.731,313.799
245,6 Feb 2026 19:57:56.404,6 Feb 2026 19:58:13.130,16.726
246,6 Feb 2026 19:58:21.345,6 Feb 2026 19:58:27.395,6.050
247,6 Feb 2026 21:25:23.899,6 Feb 2026 21:31:54.281,390.383
248,7 Feb 2026 06:33:30.224,7 Feb 2026 06:33:32.334,2.109
249,7 Feb 2026 06:33:42.796,7 Feb 2026 06:34:17.058,34.262
250,7 Feb 2026 06:34:27.164,7 Feb 2026 06:34:34.581,7.416
251,7 Feb 2026 06:34:43.472,7 Feb 2026 06:35:27.083,43.611
252,7 Feb 2026 06:35:35.381,7 Feb 2026 06:36:52.785,77.404
253,7 Feb 2026 08:07:23.587,7 Feb 2026 08:13:11.656,348.069
254,7 Feb 2026 19:34:34.960,7 Feb 2026 19:34:44.697,9.736
255,7 Feb 2026 19:34:54.804,7 Feb 2026 19:35:38.870,44.065
256,7 Feb 2026 19:35:50.214,7 Feb 2026 19:35:58.885,8.671
257,7 Feb 2026 19:36:08.326,7 Feb 2026 19:36:53.512,45.186
258,7 Feb 2026 19:37:02.473,7 Feb 2026 19:38:48.195,105.723
259,7 Feb 2026 21:06:32.393,7 Feb 2026 21:12:45.456,373.064
260,8 Feb 2026 07:48:43.060,8 Feb 2026 07:54:27.787,344.727
261,8 Feb 2026 09:22:17.501,8 Feb 2026 09:25:30.667,193.166
262,8 Feb 2026 20:47:48.203,8 Feb 2026 20:53:37.019,348.816
263,8 Feb 2026 22:23:22.126,8 Feb 2026 22:24:52.013,89.887
264,8 Feb 2026 22:26:04.606,8 Feb 2026 22:27:24.337,79.731
265,9 Feb 2026 07:28:27.639,9 Feb 2026 07:35:36.626,428.987
266,9 Feb 2026 09:03:41.345,9 Feb 2026 09:06:43.227,181.882
267,9 Feb 2026 09:07:45.248,9 Feb 2026 09:08:38.935,53.687
268,9 Feb 2026 20:29:31.129,9 Feb 2026 20:34:26.923,295.794
269,9 Feb 2026 22:03:47.161,9 Feb 2026 22:09:59.065,371.905
270,10 Feb 2026 07:09:08.169,10 Feb 2026 07:16:37.251,449.083
271,10 Feb 2026 08:44:58.729,10 Feb 2026 08:50:26.453,327.724
272,10 Feb 2026 20:11:12.292,10 Feb 2026 20:16:27.167,314.875
273,10 Feb 2026 21:44:35.707,10 Feb 2026 21:51:13.689,397.983
274,11 Feb 2026 06:51:09.882,11 Feb 2026 06:52:37.327,87.445
275,11 Feb 2026 06:52:42.122,11 Feb 2026 06:57:26.491,284.369
276,11 Feb 2026 08:26:17.386,11 Feb 2026 08:31:59.705,342.319
277,11 Feb 2026 19:52:40.494,11 Feb 2026 19:57:55.023,314.530
278,11 Feb 2026 19:58:08.717,11 Feb 2026 19:58:26.008,17.291
279,11 Feb 2026 19:58:33.692,11 Feb 2026 19:58:39.757,6.065
280,11 Feb 2026 21:25:35.928,11 Feb 2026 21:32:06.715,390.787
281,12 Feb 2026 06:33:42.229,12 Feb 2026 06:33:44.098,1.869
282,12 Feb 2026 06:33:54.571,12 Feb 2026 06:34:28.843,34.272
283,12 Feb 2026 06:34:38.954,12 Feb 2026 06:34:46.372,7.419
284,12 Feb 2026 06:34:56.598,12 Feb 2026 06:35:38.896,42.298
285,12 Feb 2026 06:35:47.196,12 Feb 2026 06:37:04.628,77.433
286,12 Feb 2026 08:07:35.610,12 Feb 2026 08:13:23.471,347.861
287,12 Feb 2026 19:34:47.491,12 Feb 2026 19:34:56.729,9.238
288,12 Feb 2026 19:35:06.843,12 Feb 2026 19:35:51.096,44.253
289,12 Feb 2026 19:36:00.019,12 Feb 2026 19:36:10.990,10.971
290,12 Feb 2026 19:36:20.443,12 Feb 2026 19:37:05.678,45.235
291,12 Feb 2026 19:37:14.648,12 Feb 2026 19:38:59.904,105.257
292,12 Feb 2026 21:06:44.470,12 Feb 2026 21:12:57.922,373.453
293,13 Feb 2026 07:48:55.045,13 Feb 2026 07:54:39.570,344.525
294,13 Feb 2026 09:22:28.913,13 Feb 2026 09:25:42.442,193.529
295,13 Feb 2026 20:48:00.336,13 Feb 2026 20:53:49.518,349.182
296,13 Feb 2026 22:23:34.208,13 Feb 2026 22:25:04.135,89.926
297,13 Feb 2026 22:26:16.731,13 Feb 2026 22:27:36.535,79.804
298,14 Feb 2026 07:28:39.134,14 Feb 2026 07:35:48.380,429.246
299,14 Feb 2026 09:03:53.312,14 Feb 2026 09:06:54.975,181.663
300,14 Feb 2026 09:07:56.951,14 Feb 2026 09:08:50.853,53.903
301,14 Feb 2026 20:29:42.670,14 Feb 2026 20:34:39.453,296.783
302,14 Feb 2026 22:03:59.275,14 Feb 2026 22:10:11.317,372.042
303,15 Feb 2026 07:09:20.369,15 Feb 2026 07:16:48.974,448.605
304,15 Feb 2026 08:45:10.668,15 Feb 2026 08:50:38.300,327.631
305,15 Feb 2026 20:11:23.683,15 Feb 2026 20:16:39.596,315.913
306,15 Feb 2026 21:44:47.858,15 Feb 2026 21:51:26.281,398.423
307,16 Feb 2026 06:51:21.800,16 Feb 2026 06:52:49.046,87.246
308,16 Feb 2026 06:52:54.206,16 Feb 2026 06:57:38.167,283.961
309,16 Feb 2026 08:26:29.287,16 Feb 2026 08:32:11.512,342.224
310,16 Feb 2026 19:52:52.126,16 Feb 2026 19:58:07.477,315.351
311,16 Feb 2026 19:58:21.192,16 Feb 2026 19:58:39.074,17.883
312,16 Feb 2026 19:58:46.201,16 Feb 2026 19:58:52.270,6.069
313,16 Feb 2026 21:25:48.122,16 Feb 2026 21:32:19.335,391.213
314,17 Feb 2026 06:33:54.253,17 Feb 2026 06:33:55.812,1.560
315,17 Feb 2026 06:34:06.295,17 Feb 2026 06:34:40.588,34.293
316,17 Feb 2026 06:34:50.698,17 Feb 2026 06:34:58.125,7.427
317,17 Feb 2026 06:35:08.556,17 Feb 2026 06:35:50.679,42.122
318,17 Feb 2026 06:35:58.982,17 Feb 2026 06:37:16.448,77.466
319,17 Feb 2026 08:07:47.481,17 Feb 2026 08:13:35.252,347.770
320,17 Feb 2026 19:35:00.192,17 Feb 2026 19:35:08.921,8.729
321,17 Feb 2026 19:35:19.044,17 Feb 2026 19:36:04.338,45.295
322,17 Feb 2026 19:36:09.788,17 Feb 2026 19:36:23.257,13.470
323,17 Feb 2026 19:36:32.724,17 Feb 2026 19:37:18.004,45.281
324,17 Feb 2026 19:37:26.990,17 Feb 2026 19:39:11.792,104.802
325,17 Feb 2026 21:06:56.712,17 Feb 2026 21:13:10.563,373.851
326,18 Feb 2026 07:49:06.893,18 Feb 2026 07:54:51.331,344.438
327,18 Feb 2026 09:22:40.331,18 Feb 2026 09:25:54.187,193.856
328,18 Feb 2026 20:48:12.635,18 Feb 2026 20:54:02.192,349.557
329,18 Feb 2026 22:23:46.487,18 Feb 2026 22:25:16.414,89.927
330,18 Feb 2026 22:26:29.021,18 Feb 2026 22:27:48.877,79.856
331,19 Feb 2026 07:28:50.566,19 Feb 2026 07:36:00.121,429.554
332,19 Feb 2026 09:04:05.144,19 Feb 2026 09:07:06.890,181.746
333,19 Feb 2026 09:08:08.647,19 Feb 2026 09:09:02.728,54.080
334,19 Feb 2026 20:29:54.310,19 Feb 2026 20:34:52.150,297.840
335,19 Feb 2026 22:04:11.568,19 Feb 2026 22:10:23.727,372.159
336,20 Feb 2026 07:09:32.319,20 Feb 2026 07:17:00.688,448.369
337,20 Feb 2026 08:45:22.473,20 Feb 2026 08:50:50.128,327.655
338,20 Feb 2026 20:11:35.164,20 Feb 2026 20:16:52.183,317.020
339,20 Feb 2026 21:45:00.182,20 Feb 2026 21:51:39.030,398.848
340,21 Feb 2026 06:51:33.736,21 Feb 2026 06:53:00.752,87.016
341,21 Feb 2026 06:53:06.062,21 Feb 2026 06:57:49.836,283.774
342,21 Feb 2026 08:26:41.071,21 Feb 2026 08:32:23.319,342.248
343,21 Feb 2026 19:53:03.898,21 Feb 2026 19:58:20.087,316.189
344,21 Feb 2026 19:58:33.817,21 Feb 2026 19:58:52.251,18.434
345,21 Feb 2026 19:58:58.862,21 Feb 2026 19:59:04.940,6.079
346,21 Feb 2026 21:26:00.484,21 Feb 2026 21:32:32.099,391.616
347,22 Feb 2026 06:34:06.346,22 Feb 2026 06:34:07.523,1.177
348,22 Feb 2026 06:34:18.014,22 Feb 2026 06:34:52.332,34.318
349,22 Feb 2026 06:35:02.454,22 Feb 2026 06:35:09.884,7.430
350,22 Feb 2026 06:35:20.330,22 Feb 2026 06:36:02.475,42.145
351,22 Feb 2026 06:36:10.784,22 Feb 2026 06:37:28.306,77.522
352,22 Feb 2026 08:07:59.247,22 Feb 2026 08:13:47.049,347.802
353,22 Feb 2026 19:35:13.051,22 Feb 2026 19:35:21.281,8.230
354,22 Feb 2026 19:35:31.416,22 Feb 2026 19:36:17.739,46.323
355,22 Feb 2026 19:36:19.810,22 Feb 2026 19:36:35.694,15.883
356,22 Feb 2026 19:36:45.172,22 Feb 2026 19:37:30.497,45.325
357,22 Feb 2026 19:37:39.493,22 Feb 2026 19:39:23.871,104.378
358,22 Feb 2026 21:07:09.124,22 Feb 2026 21:13:23.351,374.228
359,23 Feb 2026 07:49:18.642,23 Feb 2026 07:55:03.120,344.477
360,23 Feb 2026 09:22:51.819,23 Feb 2026 09:26:05.957,194.139
361,23 Feb 2026 20:48:25.103,23 Feb 2026 20:54:15.007,349.904
362,23 Feb 2026 22:23:58.948,23 Feb 2026 22:25:28.855,89.907
363,23 Feb 2026 22:26:41.478,23 Feb 2026 22:28:01.379,79.901
364,24 Feb 2026 07:29:01.996,24 Feb 2026 07:36:11.900,429.904
365,24 Feb 2026 09:04:16.884,24 Feb 2026 09:07:19.016,182.132
366,24 Feb 2026 09:08:20.390,24 Feb 2026 09:09:14.607,54.217
367,24 Feb 2026 20:30:06.113,24 Feb 2026 20:35:04.981,298.868
368,24 Feb 2026 22:04:24.035,24 Feb 2026 22:10:36.303,372.268
369,25 Feb 2026 07:09:44.064,25 Feb 2026 07:17:12.449,448.385
370,25 Feb 2026 08:45:34.208,25 Feb 2026 08:51:01.989,327.781
371,25 Feb 2026 20:11:46.827,25 Feb 2026 20:17:04.916,318.090
372,25 Feb 2026 21:45:12.677,25 Feb 2026 21:51:51.893,399.216
373,26 Feb 2026 06:51:45.741,26 Feb 2026 06:53:12.497,86.756
374,26 Feb 2026 06:53:17.738,26 Feb 2026 06:58:01.553,283.815
375,26 Feb 2026 08:26:52.792,26 Feb 2026 08:32:35.180,342.388
376,26 Feb 2026 19:53:15.856,26 Feb 2026 19:58:32.843,316.987
377,26 Feb 2026 19:58:46.585,26 Feb 2026 19:59:05.453,18.867
378,26 Feb 2026 19:59:11.659,26 Feb 2026 19:59:17.744,6.085
379,26 Feb 2026 21:26:13.017,26 Feb 2026 21:32:44.973,391.956
380,27 Feb 2026 06:34:18.552,27 Feb 2026 06:34:19.285,0.733
381,27 Feb 2026 06:34:29.785,27 Feb 2026 06:35:04.135,34.350
382,27 Feb 2026 06:35:14.263,27 Feb 2026 06:35:21.702,7.440
383,27 Feb 2026 06:35:31.980,27 Feb 2026 06:36:14.343,42.363
384,27 Feb 2026 06:36:22.655,27 Feb 2026 06:37:40.241,77.586
385,27 Feb 2026 08:08:10.963,27 Feb 2026 08:13:58.914,347.951
386,27 Feb 2026 19:35:26.041,27 Feb 2026 19:35:33.803,7.762
387,27 Feb 2026 19:35:43.950,27 Feb 2026 19:36:48.289,64.339
388,27 Feb 2026 19:36:57.773,27 Feb 2026 19:37:43.143,45.370
389,27 Feb 2026 19:37:52.148,27 Feb 2026 19:39:36.145,103.997
390,27 Feb 2026 21:07:21.701,27 Feb 2026 21:13:36.237,374.536
391,28 Feb 2026 07:49:30.353,28 Feb 2026 07:55:14.989,344.636
392,28 Feb 2026 09:23:03.424,28 Feb 2026 09:26:17.798,194.374
393,28 Feb 2026 20:48:37.731,28 Feb 2026 20:54:27.911,350.180
394,28 Feb 2026 22:24:11.562,28 Feb 2026 22:25:41.461,89.899
395,28 Feb 2026 22:26:54.087,28 Feb 2026 22:28:14.049,79.962
396,1 Mar 2026 07:29:13.478,1 Mar 2026 07:36:23.769,430.291
397,1 Mar 2026 09:04:28.591,1 Mar 2026 09:07:31.384,182.793
398,1 Mar 2026 09:08:32.234,1 Mar 2026 09:09:26.545,54.311
399,1 Mar 2026 20:30:05.087,1 Mar 2026 20:30:05.463,0.376
400,1 Mar 2026 20:30:18.125,1 Mar 2026 20:35:17.892,299.767
401,1 Mar 2026 22:04:36.659,1 Mar 2026 22:10:49.035,372.376
402,2 Mar 2026 07:09:55.669,2 Mar 2026 07:17:24.305,448.635
403,2 Mar 2026 08:45:45.916,2 Mar 2026 08:51:13.933,328.017
404,2 Mar 2026 20:11:58.738,2 Mar 2026 20:17:17.769,319.032
405,2 Mar 2026 21:45:25.325,2 Mar 2026 21:52:04.813,399.488
406,3 Mar 2026 06:51:57.859,3 Mar 2026 06:53:24.325,86.466
407,3 Mar 2026 06:53:29.315,3 Mar 2026 06:58:13.366,284.051
408,3 Mar 2026 08:27:04.496,3 Mar 2026 08:32:47.139,342.643
409,3 Mar 2026 19:53:28.046,3 Mar 2026 19:58:45.703,317.657
410,3 Mar 2026 19:58:59.462,3 Mar 2026 19:59:18.587,19.125
411,3 Mar 2026 19:59:24.562,3 Mar 2026 19:59:30.651,6.090
412,3 Mar 2026 21:26:25.697,3 Mar 2026 21:32:57.901,392.204
413,4 Mar 2026 06:34:30.904,4 Mar 2026 06:34:31.144,0.240
414,4 Mar 2026 06:34:41.652,4 Mar 2026 06:35:16.040,34.388
415,4 Mar 2026 06:35:26.180,4 Mar 2026 06:35:33.624,7.444
416,4 Mar 2026 06:35:42.882,4 Mar 2026 06:36:26.316,43.435
417,4 Mar 2026 06:36:34.642,4 Mar 2026 06:37:52.297,77.655
418,4 Mar 2026 08:08:22.679,4 Mar 2026 08:14:10.889,348.210
419,4 Mar 2026 19:35:39.114,4 Mar 2026 19:35:46.468,7.353
420,4 Mar 2026 19:35:56.625,4 Mar 2026 19:37:01.016,64.390
421,4 Mar 2026 19:37:10.507,4 Mar 2026 19:37:55.911,45.404
422,4 Mar 2026 19:38:04.925,4 Mar 2026 19:39:48.599,103.674
423,4 Mar 2026 21:07:34.415,4 Mar 2026 21:13:49.171,374.756
424,5 Mar 2026 07:49:42.081,5 Mar 2026 07:55:26.979,344.898
425,5 Mar 2026 09:23:15.189,5 Mar 2026 09:26:29.755,194.566
426,5 Mar 2026 20:48:50.485,5 Mar 2026 20:54:40.845,350.360
427,5 Mar 2026 22:24:24.295,5 Mar 2026 22:25:54.194,89.899
428,5 Mar 2026 22:27:06.823,5 Mar 2026 22:28:26.879,80.056
429,6 Mar 2026 07:29:25.063,6 Mar 2026 07:36:35.761,430.698
430,6 Mar 2026 09:04:40.321,6 Mar 2026 09:07:43.989,183.668
431,6 Mar 2026 09:08:44.205,6 Mar 2026 09:09:38.584,54.380
432,6 Mar 2026 20:30:17.268,6 Mar 2026 20:30:17.920,0.652
433,6 Mar 2026 20:30:30.373,6 Mar 2026 20:35:30.824,300.451
434,6 Mar 2026 22:04:49.403,6 Mar 2026 22:11:01.900,372.497
435,7 Mar 2026 07:10:07.193,7 Mar 2026 07:17:36.292,449.099
436,7 Mar 2026 08:45:57.663,7 Mar 2026 08:51:25.999,328.336
437,7 Mar 2026 20:12:10.951,7 Mar 2026 20:17:30.705,319.754
438,7 Mar 2026 21:45:38.090,7 Mar 2026 21:52:17.739,399.649
439,8 Mar 2026 06:52:10.119,8 Mar 2026 06:53:36.281,86.163
440,8 Mar 2026 06:53:40.862,8 Mar 2026 06:58:25.314,284.451
441,8 Mar 2026 08:27:16.252,8 Mar 2026 08:32:59.231,342.979
442,8 Mar 2026 19:53:40.478,8 Mar 2026 19:58:58.637,318.159
443,8 Mar 2026 19:59:12.407,8 Mar 2026 19:59:31.570,19.163
444,8 Mar 2026 19:59:37.527,8 Mar 2026 19:59:43.618,6.091
445,8 Mar 2026 21:26:38.487,8 Mar 2026 21:33:10.817,392.330
446,9 Mar 2026 06:34:53.647,9 Mar 2026 06:35:28.079,34.431
447,9 Mar 2026 06:35:38.231,9 Mar 2026 06:35:45.684,7.453
448,9 Mar 2026 06:35:53.201,9 Mar 2026 06:36:38.431,45.230
449,9 Mar 2026 06:36:46.767,9 Mar 2026 06:38:04.501,77.734
450,9 Mar 2026 08:08:34.455,9 Mar 2026 08:14:23.007,348.552
451,9 Mar 2026 19:35:52.220,9 Mar 2026 19:35:59.240,7.020
452,9 Mar 2026 19:36:09.399,9 Mar 2026 19:37:13.832,64.433
453,9 Mar 2026 19:37:23.327,9 Mar 2026 19:38:08.763,45.436
454,9 Mar 2026 19:38:17.778,9 Mar 2026 19:40:01.192,103.414
455,9 Mar 2026 21:07:47.234,9 Mar 2026 21:14:02.081,374.848
456,10 Mar 2026 07:49:53.887,10 Mar 2026 07:55:39.119,345.232
457,10 Mar 2026 09:23:27.146,10 Mar 2026 09:26:41.864,194.718
458,10 Mar 2026 20:49:03.337,10 Mar 2026 20:54:53.747,350.411
459,10 Mar 2026 22:24:37.084,10 Mar 2026 22:26:07.028,89.945
460,10 Mar 2026 22:27:19.650,10 Mar 2026 22:28:39.849,80.198
461,11 Mar 2026 07:29:36.789,11 Mar 2026 07:36:47.913,431.125
462,11 Mar 2026 09:04:52.124,11 Mar 2026 09:07:56.818,184.694
463,11 Mar 2026 09:08:56.335,11 Mar 2026 09:09:50.758,54.423
464,11 Mar 2026 20:30:29.724,11 Mar 2026 20:30:30.488,0.764
465,11 Mar 2026 20:30:42.872,11 Mar 2026 20:35:43.715,300.844
466,11 Mar 2026 22:05:02.220,11 Mar 2026 22:11:14.856,372.636
467,12 Mar 2026 07:10:18.728,12 Mar 2026 07:17:48.442,449.713
468,12 Mar 2026 08:46:09.497,12 Mar 2026 08:51:38.214,328.716
469,12 Mar 2026 20:12:23.483,12 Mar 2026 20:17:43.676,320.193
470,12 Mar 2026 21:45:50.927,12 Mar 2026 21:52:30.602,399.675
471,13 Mar 2026 06:52:22.541,13 Mar 2026 06:53:48.397,85.856
472,13 Mar 2026 06:53:52.474,13 Mar 2026 06:58:37.428,284.954
473,13 Mar 2026 08:27:28.107,13 Mar 2026 08:33:11.483,343.376
474,13 Mar 2026 19:53:53.149,13 Mar 2026 19:59:11.597,318.449
475,13 Mar 2026 19:59:25.378,13 Mar 2026 19:59:44.335,18.957
476,13 Mar 2026 19:59:50.506,13 Mar 2026 19:59:56.607,6.100
477,13 Mar 2026 21:26:51.345,13 Mar 2026 21:33:23.664,392.319
478,14 Mar 2026 06:35:05.808,14 Mar 2026 06:35:40.279,34.471
479,14 Mar 2026 06:35:50.444,14 Mar 2026 06:35:57.908,7.464
480,14 Mar 2026 06:36:03.476,14 Mar 2026 06:36:50.715,47.239
481,14 Mar 2026 06:36:59.056,14 Mar 2026 06:38:16.866,77.810
482,14 Mar 2026 08:08:46.342,14 Mar 2026 08:14:35.291,348.949
483,14 Mar 2026 19:36:05.316,14 Mar 2026 19:36:12.068,6.753
484,14 Mar 2026 19:36:22.232,14 Mar 2026 19:37:26.692,64.460
485,14 Mar 2026 19:37:36.194,14 Mar 2026 19:38:21.654,45.459
486,14 Mar 2026 19:38:30.672,14 Mar 2026 19:40:13.882,103.210
487,14 Mar 2026 21:08:00.111,14 Mar 2026 21:14:14.914,374.804
488,15 Mar 2026 07:50:05.814,15 Mar 2026 07:55:51.428,345.613
489,15 Mar 2026 09:23:39.306,15 Mar 2026 09:26:54.133,194.827
490,15 Mar 2026 20:49:16.236,15 Mar 2026 20:55:06.561,350.326
491,15 Mar 2026 22:24:49.879,15 Mar 2026 22:26:19.911,90.032
492,15 Mar 2026 22:27:32.513,15 Mar 2026 22:28:52.918,80.405
493,16 Mar 2026 07:29:48.688,16 Mar 2026 07:37:00.238,431.549
494,16 Mar 2026 09:05:04.057,16 Mar 2026 09:08:09.833,185.776
495,16 Mar 2026 09:09:08.638,16 Mar 2026 09:10:03.090,54.452
496,16 Mar 2026 20:30:42.460,16 Mar 2026 20:30:43.135,0.675
497,16 Mar 2026 20:30:55.604,16 Mar 2026 20:35:56.506,300.902
498,16 Mar 2026 22:05:15.062,16 Mar 2026 22:11:27.864,372.802
499,17 Mar 2026 07:10:30.509,17 Mar 2026 07:18:00.765,450.256
500,17 Mar 2026 08:46:21.465,17 Mar 2026 08:51:50.596,329.131
501,17 Mar 2026 20:12:36.328,17 Mar 2026 20:17:56.640,320.312
502,17 Mar 2026 21:46:03.787,17 Mar 2026 21:52:43.354,399.567
503,18 Mar 2026 06:52:35.131,18 Mar 2026 06:54:00.686,85.555
504,18 Mar 2026 06:54:04.214,18 Mar 2026 06:58:49.721,285.507
505,18 Mar 2026 08:27:40.105,18 Mar 2026 08:33:23.905,343.800
506,18 Mar 2026 19:54:06.026,18 Mar 2026 19:59:24.532,318.505
507,18 Mar 2026 19:59:38.318,18 Mar 2026 19:59:56.831,18.513
508,18 Mar 2026 20:00:03.462,18 Mar 2026 20:00:09.562,6.101
509,18 Mar 2026 21:27:04.219,18 Mar 2026 21:33:36.387,392.169
510,19 Mar 2026 06:35:18.140,19 Mar 2026 06:35:52.650,34.510
511,19 Mar 2026 06:36:02.829,19 Mar 2026 06:36:10.297,7.468
512,19 Mar 2026 06:36:13.939,19 Mar 2026 06:37:03.158,49.219
513,19 Mar 2026 06:37:11.509,19 Mar 2026 06:38:29.396,77.887
514,19 Mar 2026 06:38:40.520,19 Mar 2026 06:38:40.916,0.396
515,19 Mar 2026 08:08:58.391,19 Mar 2026 08:14:47.744,349.354
516,19 Mar 2026 19:36:18.332,19 Mar 2026 19:36:24.907,6.575
517,19 Mar 2026 19:36:35.077,19 Mar 2026 19:37:39.551,64.474
518,19 Mar 2026 19:37:49.056,19 Mar 2026 19:38:34.526,45.470
519,19 Mar 2026 19:38:43.545,19 Mar 2026 19:40:26.611,103.066
520,19 Mar 2026 21:08:12.993,19 Mar 2026 21:14:27.618,374.625
521,20 Mar 2026 07:50:17.902,20 Mar 2026 07:56:03.905,346.003
522,20 Mar 2026 09:23:51.654,20 Mar 2026 09:27:06.569,194.915
523,20 Mar 2026 20:49:29.124,20 Mar 2026 20:55:19.236,350.112
524,20 Mar 2026 22:25:02.610,20 Mar 2026 22:26:32.799,90.188
525,20 Mar 2026 22:27:45.370,20 Mar 2026 22:29:06.041,80.672
526,21 Mar 2026 07:30:00.772,21 Mar 2026 07:37:12.731,431.959
527,21 Mar 2026 09:05:16.146,21 Mar 2026 09:08:22.978,186.832
528,21 Mar 2026 09:09:21.111,21 Mar 2026 09:10:15.593,54.482
529,21 Mar 2026 20:30:55.439,21 Mar 2026 20:30:55.795,0.356
530,21 Mar 2026 20:31:08.533,21 Mar 2026 20:36:09.153,300.621
531,21 Mar 2026 22:05:27.868,21 Mar 2026 22:11:40.867,373.000
532,22 Mar 2026 07:10:43.118,22 Mar 2026 07:18:13.256,450.138
533,22 Mar 2026 08:46:33.604,22 Mar 2026 08:52:03.145,329.541
534,22 Mar 2026 20:12:49.442,22 Mar 2026 20:18:09.538,320.097
535,22 Mar 2026 21:46:16.612,22 Mar 2026 21:52:55.947,399.334
536,23 Mar 2026 06:52:47.872,23 Mar 2026 06:54:13.136,85.263
537,23 Mar 2026 06:54:16.150,23 Mar 2026 06:59:02.185,286.035
538,23 Mar 2026 08:27:52.279,23 Mar 2026 08:33:36.489,344.210
539,23 Mar 2026 19:54:19.065,23 Mar 2026 19:59:37.391,318.326
540,23 Mar 2026 19:59:51.183,23 Mar 2026 20:00:09.030,17.848
541,23 Mar 2026 20:00:16.332,23 Mar 2026 20:00:22.436,6.104
542,23 Mar 2026 21:27:17.055,23 Mar 2026 21:33:48.951,391.896
543,24 Mar 2026 06:35:30.632,24 Mar 2026 06:36:05.187,34.556
544,24 Mar 2026 06:36:15.368,24 Mar 2026 06:36:22.850,7.482
545,24 Mar 2026 06:36:24.787,24 Mar 2026 06:37:15.762,50.975
546,24 Mar 2026 06:37:24.121,24 Mar 2026 06:38:42.072,77.951
547,24 Mar 2026 06:38:53.204,24 Mar 2026 06:38:54.125,0.920
548,24 Mar 2026 08:09:10.613,24 Mar 2026 08:15:00.356,349.743
549,24 Mar 2026 19:36:31.244,24 Mar 2026 19:36:37.707,6.464
550,24 Mar 2026 19:36:47.874,24 Mar 2026 19:37:52.353,64.479
551,24 Mar 2026 19:38:01.857,24 Mar 2026 19:38:47.331,45.474
552,24 Mar 2026 19:38:56.356,24 Mar 2026 19:40:39.313,102.957
553,24 Mar 2026 21:08:25.828,24 Mar 2026 21:14:40.146,374.318
554,25 Mar 2026 07:50:30.174,25 Mar 2026 07:56:16.537,346.362
555,25 Mar 2026 09:24:04.173,25 Mar 2026 09:27:19.164,194.992
556,25 Mar 2026 20:49:41.955,25 Mar 2026 20:55:31.729,349.774
557,25 Mar 2026 22:25:15.238,25 Mar 2026 22:26:45.643,90.405
558,25 Mar 2026 22:27:58.162,25 Mar 2026 22:29:19.162,81.000
559,26 Mar 2026 07:30:13.041,26 Mar 2026 07:37:25.376,432.336
560,26 Mar 2026 09:05:28.427,26 Mar 2026 09:08:36.182,187.755
561,26 Mar 2026 09:09:33.727,26 Mar 2026 09:10:28.255,54.528
562,26 Mar 2026 20:31:21.596,26 Mar 2026 20:36:21.621,300.025
563,26 Mar 2026 22:05:40.588,26 Mar 2026 22:11:53.822,373.234
564,27 Mar 2026 07:10:55.873,27 Mar 2026 07:18:25.902,450.029
565,27 Mar 2026 08:46:45.931,27 Mar 2026 08:52:15.844,329.912
566,27 Mar 2026 20:13:02.777,27 Mar 2026 20:18:22.344,319.567
567,27 Mar 2026 21:46:29.357,27 Mar 2026 21:53:08.357,399.000
568,28 Mar 2026 06:53:00.744,28 Mar 2026 06:54:25.743,84.999
569,28 Mar 2026 06:54:28.331,28 Mar 2026 06:59:14.806,286.475
570,28 Mar 2026 08:28:04.647,28 Mar 2026 08:33:49.215,344.568
571,28 Mar 2026 19:54:32.210,28 Mar 2026 19:59:50.141,317.931
572,28 Mar 2026 20:00:03.934,28 Mar 2026 20:00:20.936,17.003
573,28 Mar 2026 20:00:29.092,28 Mar 2026 20:00:35.202,6.110
574,28 Mar 2026 21:27:29.801,28 Mar 2026 21:34:01.325,391.523
575,29 Mar 2026 06:35:43.271,29 Mar 2026 06:36:17.862,34.591
576,29 Mar 2026 06:36:28.050,29 Mar 2026 06:36:35.536,7.486
577,29 Mar 2026 06:36:36.177,29 Mar 2026 06:37:28.496,52.319
578,29 Mar 2026 06:37:36.858,29 Mar 2026 06:38:54.867,78.009
579,29 Mar 2026 06:39:06.009,29 Mar 2026 06:39:07.294,1.285
580,29 Mar 2026 08:09:23.029,29 Mar 2026 08:15:13.103,350.074
581,29 Mar 2026 19:36:43.999,29 Mar 2026 19:36:50.412,6.412
582,29 Mar 2026 19:37:00.579,29 Mar 2026 19:37:46.736,46.157
583,29 Mar 2026 19:37:49.936,29 Mar 2026 19:38:05.057,15.121
584,29 Mar 2026 19:38:14.562,29 Mar 2026 19:39:00.035,45.473
585,29 Mar 2026 19:39:09.058,29 Mar 2026 19:40:51.937,102.878
586,29 Mar 2026 21:08:38.570,29 Mar 2026 21:14:52.487,373.917
587,30 Mar 2026 07:50:42.643,30 Mar 2026 07:56:29.297,346.655
588,30 Mar 2026 09:24:16.818,30 Mar 2026 09:27:31.884,195.066
589,30 Mar 2026 20:49:54.683,30 Mar 2026 20:55:44.031,349.349
590,30 Mar 2026 22:25:27.713,30 Mar 2026 22:26:58.386,90.672
591,30 Mar 2026 22:28:10.848,30 Mar 2026 22:29:32.234,81.386
592,31 Mar 2026 07:30:25.470,31 Mar 2026 07:37:38.143,432.673
593,31 Mar 2026 09:05:40.900,31 Mar 2026 09:08:49.371,188.472
594,31 Mar 2026 09:09:46.459,31 Mar 2026 09:10:41.057,54.598
595,31 Mar 2026 20:31:34.738,31 Mar 2026 20:36:33.885,299.147
596,31 Mar 2026 22:05:53.182,31 Mar 2026 22:12:06.679,373.497
597,1 Apr 2026 07:11:08.743,1 Apr 2026 07:18:38.665,449.922
598,1 Apr 2026 08:46:58.448,1 Apr 2026 08:52:28.665,330.216
599,1 Apr 2026 20:13:16.237,1 Apr 2026 20:18:35.010,318.772
600,1 Apr 2026 21:46:41.977,1 Apr 2026 21:53:20.569,398.592
601,2 Apr 2026 06:53:13.709,2 Apr 2026 06:54:38.465,84.756
602,2 Apr 2026 06:54:40.775,2 Apr 2026 06:59:27.547,286.772
603,2 Apr 2026 08:28:17.204,2 Apr 2026 08:34:02.050,344.846
604,2 Apr 2026 19:54:45.376,2 Apr 2026 20:00:02.750,317.374
605,2 Apr 2026 20:00:16.546,2 Apr 2026 20:00:32.575,16.028
606,2 Apr 2026 20:00:41.708,2 Apr 2026 20:00:47.818,6.110
607,2 Apr 2026 21:27:42.424,2 Apr 2026 21:34:13.499,391.075
608,3 Apr 2026 06:35:56.022,3 Apr 2026 06:36:30.639,34.617
609,3 Apr 2026 06:36:40.838,3 Apr 2026 06:37:41.320,60.482
610,3 Apr 2026 06:37:49.692,3 Apr 2026 06:39:07.736,78.044
611,3 Apr 2026 06:39:18.885,3 Apr 2026 06:39:20.325,1.441
612,3 Apr 2026 08:09:35.628,3 Apr 2026 08:15:25.945,350.317
613,3 Apr 2026 19:36:56.593,3 Apr 2026 19:37:02.989,6.396
614,3 Apr 2026 19:37:13.153,3 Apr 2026 19:37:58.024,44.871
615,3 Apr 2026 19:38:05.780,3 Apr 2026 19:38:17.619,11.839
616,3 Apr 2026 19:38:27.121,3 Apr 2026 19:39:12.596,45.475
617,3 Apr 2026 19:39:21.613,3 Apr 2026 19:41:04.425,102.812
618,3 Apr 2026 21:08:51.178,3 Apr 2026 21:15:04.622,373.444
619,4 Apr 2026 07:50:55.286,4 Apr 2026 07:56:42.143,346.856
620,4 Apr 2026 09:24:29.532,4 Apr 2026 09:27:44.694,195.162
621,4 Apr 2026 20:50:07.270,4 Apr 2026 20:55:56.134,348.864
622,4 Apr 2026 22:25:40.007,4 Apr 2026 22:27:11.004,90.998
623,4 Apr 2026 22:28:23.396,4 Apr 2026 22:29:45.205,81.810
624,5 Apr 2026 07:30:38.017,5 Apr 2026 07:37:50.987,432.969
625,5 Apr 2026 09:05:53.541,5 Apr 2026 09:09:02.477,188.936
626,5 Apr 2026 09:09:59.259,5 Apr 2026 09:10:53.961,54.702
627,5 Apr 2026 20:31:47.879,5 Apr 2026 20:36:45.950,298.071
628,5 Apr 2026 22:06:05.615,5 Apr 2026 22:12:19.401,373.787
629,6 Apr 2026 07:11:21.683,6 Apr 2026 07:18:51.501,449.818
630,6 Apr 2026 08:47:11.138,6 Apr 2026 08:52:41.565,330.428
631,6 Apr 2026 20:13:29.735,6 Apr 2026 20:18:47.525,317.790
632,6 Apr 2026 21:46:54.439,6 Apr 2026 21:53:32.587,398.148
633,7 Apr 2026 06:53:26.712,7 Apr 2026 06:54:51.266,84.554
634,7 Apr 2026 06:54:53.481,7 Apr 2026 06:59:40.364,286.883
635,7 Apr 2026 08:28:29.923,7 Apr 2026 08:34:14.947,345.023
636,7 Apr 2026 19:54:58.496,7 Apr 2026 20:00:15.197,316.701
637,7 Apr 2026 20:00:28.997,7 Apr 2026 20:00:44.770,15.773
638,7 Apr 2026 20:00:54.167,7 Apr 2026 20:01:00.277,6.110
639,7 Apr 2026 21:27:54.887,7 Apr 2026 21:34:25.480,390.594
640,8 Apr 2026 06:36:08.840,8 Apr 2026 06:36:43.473,34.632
641,8 Apr 2026 06:36:53.677,8 Apr 2026 06:37:54.194,60.517
642,8 Apr 2026 06:38:02.565,8 Apr 2026 06:39:20.640,78.075
643,8 Apr 2026 06:39:31.792,8 Apr 2026 06:39:33.158,1.366
644,8 Apr 2026 08:09:48.388,8 Apr 2026 08:15:38.836,350.448
645,8 Apr 2026 19:37:09.012,8 Apr 2026 19:37:15.412,6.399
646,8 Apr 2026 19:37:25.573,8 Apr 2026 19:38:09.893,44.319
647,8 Apr 2026 19:38:21.989,8 Apr 2026 19:38:30.025,8.037
648,8 Apr 2026 19:38:39.525,8 Apr 2026 19:39:24.996,45.471
649,8 Apr 2026 19:39:34.014,8 Apr 2026 19:41:15.498,101.484
650,8 Apr 2026 19:41:16.378,8 Apr 2026 19:41:16.738,0.361
651,8 Apr 2026 21:09:03.627,8 Apr 2026 21:15:16.574,372.947
652,9 Apr 2026 07:51:08.081,9 Apr 2026 07:56:55.026,346.945
653,9 Apr 2026 09:24:42.259,9 Apr 2026 09:27:57.551,195.291
654,9 Apr 2026 20:50:19.695,9 Apr 2026 20:56:08.051,348.356
655,9 Apr 2026 22:25:52.108,9 Apr 2026 22:27:23.462,91.354
656,9 Apr 2026 22:28:35.780,9 Apr 2026 22:29:58.044,82.264
657,10 Apr 2026 07:30:50.643,10 Apr 2026 07:38:03.860,433.217
658,10 Apr 2026 09:06:06.337,10 Apr 2026 09:09:15.430,189.093
659,10 Apr 2026 09:10:12.082,10 Apr 2026 09:11:06.925,54.843
660,10 Apr 2026 20:32:00.941,10 Apr 2026 20:36:57.837,296.896
661,10 Apr 2026 22:06:17.871,10 Apr 2026 22:12:31.967,374.096
662,11 Apr 2026 07:11:34.647,11 Apr 2026 07:19:04.362,449.715
663,11 Apr 2026 08:47:23.964,11 Apr 2026 08:52:54.496,330.532
664,11 Apr 2026 20:13:43.178,11 Apr 2026 20:18:59.883,316.705
665,11 Apr 2026 21:47:06.731,11 Apr 2026 21:53:44.442,397.711
666,12 Apr 2026 06:53:39.709,12 Apr 2026 06:55:04.094,84.385
667,12 Apr 2026 06:55:06.432,12 Apr 2026 06:59:53.207,286.775
668,12 Apr 2026 08:28:42.775,12 Apr 2026 08:34:27.858,345.083
669,12 Apr 2026 19:55:11.500,12 Apr 2026 20:00:27.490,315.991
670,12 Apr 2026 20:00:41.290,12 Apr 2026 20:00:56.677,15.386
671,12 Apr 2026 20:01:06.469,12 Apr 2026 20:01:12.583,6.114
672,12 Apr 2026 21:28:07.180,12 Apr 2026 21:34:37.305,390.125
673,13 Apr 2026 06:36:21.675,13 Apr 2026 06:36:56.322,34.647
674,13 Apr 2026 06:37:06.532,13 Apr 2026 06:37:14.030,7.498
675,13 Apr 2026 06:37:14.410,13 Apr 2026 06:38:07.062,52.652
676,13 Apr 2026 06:38:15.439,13 Apr 2026 06:39:33.529,78.090
677,13 Apr 2026 06:39:44.679,13 Apr 2026 06:39:45.737,1.058
678,13 Apr 2026 08:10:01.265,13 Apr 2026 08:15:51.727,350.461
679,13 Apr 2026 19:37:21.268,13 Apr 2026 19:37:27.660,6.393
680,13 Apr 2026 19:37:37.824,13 Apr 2026 19:38:22.130,44.306
681,13 Apr 2026 19:38:35.051,13 Apr 2026 19:38:42.262,7.211
682,13 Apr 2026 19:38:51.758,13 Apr 2026 19:39:37.227,45.468
683,13 Apr 2026 19:39:46.243,13 Apr 2026 19:41:25.515,99.272
684,13 Apr 2026 19:41:28.615,13 Apr 2026 19:41:28.858,0.243
685,13 Apr 2026 21:09:15.906,13 Apr 2026 21:15:28.371,372.465
686,14 Apr 2026 07:51:20.986,14 Apr 2026 07:57:07.896,346.910
687,14 Apr 2026 09:24:55.018,14 Apr 2026 09:28:10.395,195.377
688,14 Apr 2026 20:50:31.951,14 Apr 2026 20:56:19.822,347.871
689,14 Apr 2026 22:26:04.026,14 Apr 2026 22:27:35.757,91.731
690,14 Apr 2026 22:28:47.996,14 Apr 2026 22:30:10.714,82.718
691,15 Apr 2026 07:31:03.292,15 Apr 2026 07:38:16.710,433.418
692,15 Apr 2026 09:06:19.237,15 Apr 2026 09:09:28.184,188.947
693,15 Apr 2026 09:10:24.874,15 Apr 2026 09:11:19.898,55.024
694,15 Apr 2026 20:32:13.859,15 Apr 2026 20:37:09.581,295.722
695,15 Apr 2026 22:06:29.952,15 Apr 2026 22:12:44.365,374.413
696,16 Apr 2026 07:11:47.584,16 Apr 2026 07:19:17.192,449.608
697,16 Apr 2026 08:47:36.881,16 Apr 2026 08:53:07.413,330.531
698,16 Apr 2026 20:13:56.467,16 Apr 2026 20:19:12.084,315.617
699,16 Apr 2026 21:47:18.850,16 Apr 2026 21:53:56.170,397.320
700,17 Apr 2026 06:53:52.652,17 Apr 2026 06:55:16.898,84.246
701,17 Apr 2026 06:55:19.569,17 Apr 2026 07:00:06.016,286.448
702,17 Apr 2026 08:28:55.710,17 Apr 2026 08:34:40.731,345.021
703,17 Apr 2026 19:55:24.324,17 Apr 2026 20:00:39.632,315.308
704,17 Apr 2026 20:00:53.439,17 Apr 2026 20:01:07.916,14.477
705,17 Apr 2026 20:01:18.629,17 Apr 2026 20:01:24.745,6.116
706,17 Apr 2026 21:28:19.302,17 Apr 2026 21:34:49.007,389.704
707,18 Apr 2026 06:36:34.476,18 Apr 2026 06:37:09.128,34.652
708,18 Apr 2026 06:37:19.341,18 Apr 2026 06:37:26.838,7.497
709,18 Apr 2026 06:37:28.518,18 Apr 2026 06:38:19.877,51.359
710,18 Apr 2026 06:38:28.255,18 Apr 2026 06:39:46.345,78.090
711,18 Apr 2026 06:39:57.496,18 Apr 2026 06:39:58.025,0.529
712,18 Apr 2026 08:10:14.217,18 Apr 2026 08:16:04.563,350.346
713,18 Apr 2026 19:37:33.394,18 Apr 2026 19:37:39.745,6.350
714,18 Apr 2026 19:37:49.905,18 Apr 2026 19:38:34.207,44.302
715,18 Apr 2026 19:38:47.128,18 Apr 2026 19:38:54.334,7.206
716,18 Apr 2026 19:39:03.833,18 Apr 2026 19:39:49.303,45.470
717,18 Apr 2026 19:39:59.636,18 Apr 2026 19:41:36.393,96.757
718,18 Apr 2026 19:41:40.700,18 Apr 2026 19:41:40.776,0.076
719,18 Apr 2026 21:09:28.017,18 Apr 2026 21:15:40.053,372.035
720,19 Apr 2026 07:51:33.946,19 Apr 2026 07:57:20.699,346.754
721,19 Apr 2026 09:25:07.926,19 Apr 2026 09:28:23.178,195.252
722,19 Apr 2026 20:50:44.042,19 Apr 2026 20:56:31.482,347.440
723,19 Apr 2026 22:26:15.778,19 Apr 2026 22:27:47.887,92.109
724,19 Apr 2026 22:29:00.051,19 Apr 2026 22:30:23.213,83.162
725,20 Apr 2026 07:31:15.901,20 Apr 2026 07:38:29.482,433.581
726,20 Apr 2026 09:06:32.188,20 Apr 2026 09:09:40.706,188.518
727,20 Apr 2026 09:10:37.578,20 Apr 2026 09:11:32.827,55.249
728,20 Apr 2026 20:32:26.580,20 Apr 2026 20:37:21.219,294.639
729,20 Apr 2026 22:06:41.869,20 Apr 2026 22:12:56.603,374.735
730,21 Apr 2026 07:12:00.441,21 Apr 2026 07:19:29.937,449.497
731,21 Apr 2026 08:47:49.840,21 Apr 2026 08:53:20.261,330.421
732,21 Apr 2026 20:14:09.522,21 Apr 2026 20:19:24.162,314.640
733,21 Apr 2026 21:47:30.808,21 Apr 2026 21:54:07.814,397.007
734,22 Apr 2026 06:54:05.490,22 Apr 2026 06:55:29.625,84.135
735,22 Apr 2026 06:55:32.836,22 Apr 2026 07:00:18.743,285.907
736,22 Apr 2026 08:29:08.672,22 Apr 2026 08:34:53.517,344.845
737,22 Apr 2026 19:55:36.931,22 Apr 2026 20:00:51.652,314.721
738,22 Apr 2026 20:01:05.471,22 Apr 2026 20:01:19.197,13.726
739,22 Apr 2026 20:01:30.675,22 Apr 2026 20:01:36.795,6.120
740,22 Apr 2026 21:28:31.269,22 Apr 2026 21:35:00.641,389.373
741,23 Apr 2026 06:36:47.192,23 Apr 2026 06:37:21.843,34.650
742,23 Apr 2026 06:37:32.055,23 Apr 2026 06:37:39.552,7.497
743,23 Apr 2026 06:37:43.171,23 Apr 2026 06:38:32.595,49.423
744,23 Apr 2026 06:38:40.970,23 Apr 2026 06:39:59.050,78.080
745,23 Apr 2026 08:10:27.178,23 Apr 2026 08:16:17.299,350.121
746,23 Apr 2026 19:37:45.424,23 Apr 2026 19:37:51.681,6.257
747,23 Apr 2026 19:38:01.838,23 Apr 2026 19:38:46.140,44.302
748,23 Apr 2026 19:38:59.060,23 Apr 2026 19:39:06.270,7.210
749,23 Apr 2026 19:39:15.768,23 Apr 2026 19:40:01.248,45.480
750,23 Apr 2026 19:40:31.374,23 Apr 2026 19:41:47.563,76.189
751,23 Apr 2026 21:09:39.983,23 Apr 2026 21:15:51.679,371.696
752,24 Apr 2026 07:51:46.903,24 Apr 2026 07:57:33.392,346.489
753,24 Apr 2026 09:25:20.765,24 Apr 2026 09:28:35.858,195.093
754,24 Apr 2026 20:50:55.994,24 Apr 2026 20:56:43.095,347.101
755,24 Apr 2026 22:26:27.407,24 Apr 2026 22:27:59.880,92.473
756,24 Apr 2026 22:29:11.969,24 Apr 2026 22:30:35.550,83.580
757,25 Apr 2026 07:31:28.423,25 Apr 2026 07:38:42.139,433.716
758,25 Apr 2026 09:06:45.136,25 Apr 2026 09:09:52.986,187.850
759,25 Apr 2026 09:10:50.160,25 Apr 2026 09:11:45.664,55.503
760,25 Apr 2026 20:32:39.066,25 Apr 2026 20:37:32.824,293.758
761,25 Apr 2026 22:06:53.656,25 Apr 2026 22:13:08.699,375.043
762,26 Apr 2026 07:12:13.185,26 Apr 2026 07:19:42.563,449.379
763,26 Apr 2026 08:48:02.783,26 Apr 2026 08:53:32.996,330.213
764,26 Apr 2026 20:14:22.288,26 Apr 2026 20:19:36.146,313.858
765,26 Apr 2026 21:47:42.641,26 Apr 2026 21:54:19.446,396.806
766,27 Apr 2026 06:54:18.193,27 Apr 2026 06:55:42.236,84.042
767,27 Apr 2026 06:55:46.151,27 Apr 2026 07:00:31.344,285.194
768,27 Apr 2026 08:29:21.605,27 Apr 2026 08:35:06.177,344.572
769,27 Apr 2026 19:55:49.293,27 Apr 2026 20:01:03.592,314.299
770,27 Apr 2026 20:01:17.419,27 Apr 2026 20:01:30.600,13.182
771,27 Apr 2026 20:01:42.643,27 Apr 2026 20:01:48.768,6.126
772,27 Apr 2026 21:28:43.117,27 Apr 2026 21:35:12.267,389.151
773,28 Apr 2026 06:36:59.785,28 Apr 2026 06:37:34.433,34.648
774,28 Apr 2026 06:37:44.642,28 Apr 2026 06:37:52.140,7.498
775,28 Apr 2026 06:37:58.240,28 Apr 2026 06:38:45.175,46.935
776,28 Apr 2026 06:38:53.548,28 Apr 2026 06:40:11.617,78.069
777,28 Apr 2026 08:10:40.098,28 Apr 2026 08:16:29.901,349.802
778,28 Apr 2026 19:37:57.404,28 Apr 2026 19:38:03.499,6.095
779,28 Apr 2026 19:38:13.659,28 Apr 2026 19:38:57.967,44.308
780,28 Apr 2026 19:39:10.891,28 Apr 2026 19:39:18.100,7.210
781,28 Apr 2026 19:39:27.601,28 Apr 2026 19:40:13.095,45.494
782,28 Apr 2026 19:40:43.243,28 Apr 2026 19:41:59.108,75.865
783,28 Apr 2026 21:09:51.834,28 Apr 2026 21:16:03.306,371.472
784,29 Apr 2026 07:51:59.803,29 Apr 2026 07:57:45.940,346.137
785,29 Apr 2026 09:25:33.494,29 Apr 2026 09:28:48.397,194.902
786,29 Apr 2026 20:51:07.843,29 Apr 2026 20:56:54.722,346.879
787,29 Apr 2026 22:26:38.956,29 Apr 2026 22:28:11.764,92.807
788,29 Apr 2026 22:29:23.793,29 Apr 2026 22:30:47.740,83.947
789,30 Apr 2026 07:31:40.814,30 Apr 2026 07:38:54.643,433.830
790,30 Apr 2026 09:06:58.021,30 Apr 2026 09:10:05.036,187.014
791,30 Apr 2026 09:11:02.588,30 Apr 2026 09:11:58.373,55.785
792,30 Apr 2026 20:32:51.302,30 Apr 2026 20:37:44.450,293.148
793,30 Apr 2026 22:07:05.355,30 Apr 2026 22:13:20.690,375.335
794,1 May 2026 07:12:25.777,1 May 2026 07:19:55.030,449.253
795,1 May 2026 08:48:15.647,1 May 2026 08:53:45.585,329.937
796,1 May 2026 20:14:34.734,1 May 2026 20:19:48.073,313.339
797,1 May 2026 21:47:54.385,1 May 2026 21:54:31.117,396.732
798,2 May 2026 06:54:30.739,2 May 2026 06:55:54.693,83.955
799,2 May 2026 06:55:59.437,2 May 2026 07:00:43.781,284.343
800,2 May 2026 08:29:34.450,2 May 2026 08:35:18.684,344.234
801,2 May 2026 19:56:01.410,2 May 2026 20:01:15.491,314.081
802,2 May 2026 20:01:29.330,2 May 2026 20:01:42.203,12.873
803,2 May 2026 20:01:54.580,2 May 2026 20:02:00.714,6.135
804,2 May 2026 21:28:54.881,2 May 2026 21:35:23.940,389.059
805,3 May 2026 06:37:12.216,3 May 2026 06:37:46.861,34.645
806,3 May 2026 06:37:57.072,3 May 2026 06:38:04.568,7.495
807,3 May 2026 06:38:13.525,3 May 2026 06:38:57.595,44.069
808,3 May 2026 06:39:05.969,3 May 2026 06:40:24.020,78.050
809,3 May 2026 08:10:52.915,3 May 2026 08:16:42.338,349.422
810,3 May 2026 19:38:09.386,3 May 2026 19:38:15.242,5.856
811,3 May 2026 19:38:25.403,3 May 2026 19:39:09.729,44.326
812,3 May 2026 19:39:22.658,3 May 2026 19:39:29.866,7.208
813,3 May 2026 19:39:39.372,3 May 2026 19:40:24.889,45.517
814,3 May 2026 19:40:55.056,3 May 2026 19:42:10.651,75.595
815,3 May 2026 21:10:03.610,3 May 2026 21:16:14.993,371.383
816,4 May 2026 07:52:12.593,4 May 2026 07:57:58.321,345.728
817,4 May 2026 09:25:46.082,4 May 2026 09:29:00.772,194.690
818,4 May 2026 20:51:19.628,4 May 2026 20:57:06.416,346.787
819,4 May 2026 22:26:50.490,4 May 2026 22:28:23.574,93.085
820,4 May 2026 22:29:35.559,4 May 2026 22:30:59.820,84.261
821,5 May 2026 07:31:53.031,5 May 2026 07:39:06.977,433.945
822,5 May 2026 09:07:10.790,5 May 2026 09:10:16.889,186.099
823,5 May 2026 09:11:14.847,5 May 2026 09:12:10.924,56.077
824,5 May 2026 20:33:03.296,5 May 2026 20:37:56.160,292.864
825,5 May 2026 22:07:17.014,5 May 2026 22:13:32.620,375.606
826,6 May 2026 07:12:38.207,6 May 2026 07:20:07.323,449.116
827,6 May 2026 08:48:28.385,6 May 2026 08:53:58.008,329.623
828,6 May 2026 20:14:46.852,6 May 2026 20:20:00.000,313.148
829,6 May 2026 21:48:06.091,6 May 2026 21:54:42.884,396.793
830,7 May 2026 06:54:43.118,7 May 2026 06:56:06.995,83.878
831,7 May 2026 06:56:12.556,7 May 2026 07:00:56.042,283.486
832,7 May 2026 08:29:47.157,7 May 2026 08:35:31.019,343.863
833,7 May 2026 19:56:13.310,7 May 2026 20:01:27.403,314.093
834,7 May 2026 20:01:41.255,7 May 2026 20:01:54.065,12.810
835,7 May 2026 20:02:06.533,7 May 2026 20:02:12.672,6.139
836,7 May 2026 21:29:06.614,7 May 2026 21:35:35.721,389.107
837,8 May 2026 06:37:24.485,8 May 2026 06:37:59.120,34.636
838,8 May 2026 06:38:09.329,8 May 2026 06:38:16.827,7.498
839,8 May 2026 06:38:27.514,8 May 2026 06:39:09.851,42.338
840,8 May 2026 06:39:18.218,8 May 2026 06:40:36.257,78.039
841,8 May 2026 08:11:05.587,8 May 2026 08:16:54.607,349.020
842,8 May 2026 19:38:21.424,8 May 2026 19:38:26.961,5.537
843,8 May 2026 19:38:37.128,8 May 2026 19:39:21.475,44.347
844,8 May 2026 19:39:34.410,8 May 2026 19:39:41.627,7.217
845,8 May 2026 19:39:51.139,8 May 2026 19:40:36.685,45.547
846,8 May 2026 19:41:06.881,8 May 2026 19:42:22.518,75.638
847,8 May 2026 21:10:15.366,8 May 2026 21:16:26.794,371.428
848,9 May 2026 07:52:25.229,9 May 2026 07:58:10.531,345.302
849,9 May 2026 09:25:58.511,9 May 2026 09:29:12.983,194.472
850,9 May 2026 20:51:31.407,9 May 2026 20:57:18.237,346.830
851,9 May 2026 22:27:02.056,9 May 2026 22:28:35.375,93.319
852,9 May 2026 22:29:47.322,9 May 2026 22:31:11.842,84.520
853,10 May 2026 07:32:05.070,10 May 2026 07:39:19.139,434.069
854,10 May 2026 09:07:23.407,10 May 2026 09:10:28.593,185.186
855,10 May 2026 09:11:26.936,10 May 2026 09:12:23.308,56.371
856,10 May 2026 20:33:15.084,10 May 2026 20:38:07.998,292.914
857,10 May 2026 22:07:28.689,10 May 2026 22:13:44.541,375.852
858,11 May 2026 07:12:50.473,11 May 2026 07:20:19.443,448.970
859,11 May 2026 08:48:40.964,11 May 2026 08:54:10.264,329.300
860,11 May 2026 20:14:58.677,11 May 2026 20:20:11.975,313.297
861,11 May 2026 21:48:17.814,11 May 2026 21:54:54.794,396.981
862,12 May 2026 06:54:55.340,12 May 2026 06:56:19.133,83.793
863,12 May 2026 06:56:25.079,12 May 2026 07:00:41.457,256.378
864,12 May 2026 07:00:42.971,12 May 2026 07:01:08.126,25.155
865,12 May 2026 08:29:59.698,12 May 2026 08:35:43.191,343.494
866,12 May 2026 19:56:25.030,12 May 2026 20:01:39.374,314.345
867,12 May 2026 20:01:53.245,12 May 2026 20:02:06.218,12.973
868,12 May 2026 20:02:18.551,12 May 2026 20:02:24.701,6.150
869,12 May 2026 21:29:18.370,12 May 2026 21:35:47.655,389.285
870,13 May 2026 06:37:36.587,13 May 2026 06:38:11.217,34.631
871,13 May 2026 06:38:21.423,13 May 2026 06:38:28.924,7.501
872,13 May 2026 06:38:40.332,13 May 2026 06:39:21.946,41.613
873,13 May 2026 06:39:30.316,13 May 2026 06:40:48.342,78.026
874,13 May 2026 08:11:18.090,13 May 2026 08:17:06.710,348.620
875,13 May 2026 19:38:33.565,13 May 2026 19:38:38.708,5.142
876,13 May 2026 19:38:48.879,13 May 2026 19:39:33.263,44.385
877,13 May 2026 19:39:46.206,13 May 2026 19:39:53.425,7.219
878,13 May 2026 19:40:02.946,13 May 2026 19:40:48.534,45.587
879,13 May 2026 19:41:18.750,13 May 2026 19:42:34.744,75.994
880,13 May 2026 21:10:27.152,13 May 2026 21:16:38.761,371.610
881,14 May 2026 07:52:37.682,14 May 2026 07:58:22.580,344.898
882,14 May 2026 09:26:10.776,14 May 2026 09:29:25.028,194.252
883,14 May 2026 20:51:43.227,14 May 2026 20:57:30.229,347.001
884,14 May 2026 22:27:13.712,14 May 2026 22:28:47.205,93.493
885,14 May 2026 22:29:59.128,14 May 2026 22:31:23.845,84.717
886,15 May 2026 07:32:16.918,15 May 2026 07:39:31.140,434.223
887,15 May 2026 09:07:35.844,15 May 2026 09:10:40.212,184.369
888,15 May 2026 09:11:38.864,15 May 2026 09:12:35.526,56.662
889,15 May 2026 20:33:26.712,15 May 2026 20:38:20.008,293.297
890,15 May 2026 22:07:40.433,15 May 2026 22:13:56.495,376.062
891,16 May 2026 07:13:02.733,16 May 2026 07:20:31.403,448.670
892,16 May 2026 08:48:53.355,16 May 2026 08:54:22.361,329.006
893,16 May 2026 20:15:10.273,16 May 2026 20:20:24.037,313.764
894,16 May 2026 21:48:29.601,16 May 2026 21:55:06.880,397.279
895,17 May 2026 06:55:07.426,17 May 2026 06:56:31.102,83.677
896,17 May 2026 06:56:37.545,17 May 2026 07:00:52.016,254.471
897,17 May 2026 07:00:54.975,17 May 2026 07:01:20.044,25.070
898,17 May 2026 08:30:12.051,17 May 2026 08:35:55.209,343.158
899,17 May 2026 19:56:36.628,17 May 2026 20:01:51.440,314.813
900,17 May 2026 20:02:05.329,17 May 2026 20:02:18.670,13.342
901,17 May 2026 20:02:30.672,17 May 2026 20:02:36.829,6.157
902,17 May 2026 21:29:30.195,17 May 2026 21:35:59.774,389.579
903,18 May 2026 06:37:48.528,18 May 2026 06:38:23.163,34.635
904,18 May 2026 06:38:33.367,18 May 2026 06:38:40.875,7.508
905,18 May 2026 06:38:52.910,18 May 2026 06:39:33.895,40.984
906,18 May 2026 06:39:42.269,18 May 2026 06:41:00.302,78.033
907,18 May 2026 08:11:30.394,18 May 2026 08:17:18.668,348.274
908,18 May 2026 19:38:45.844,18 May 2026 19:38:50.528,4.684
909,18 May 2026 19:39:00.708,18 May 2026 19:39:45.128,44.421
910,18 May 2026 19:39:58.086,18 May 2026 19:40:05.315,7.229
911,18 May 2026 19:40:14.844,18 May 2026 19:41:00.473,45.629
912,18 May 2026 19:41:30.716,18 May 2026 19:42:47.126,76.410
913,18 May 2026 21:10:39.015,18 May 2026 21:16:50.910,371.895
914,19 May 2026 07:52:49.948,19 May 2026 07:58:34.491,344.542
915,19 May 2026 09:26:22.889,19 May 2026 09:29:36.939,194.050
916,19 May 2026 20:51:55.136,19 May 2026 20:57:42.406,347.270
917,19 May 2026 22:27:25.509,19 May 2026 22:28:59.116,93.607
918,19 May 2026 22:30:11.028,19 May 2026 22:31:35.881,84.853
919,20 May 2026 07:32:28.596,20 May 2026 07:39:43.010,434.414
920,20 May 2026 09:07:48.087,20 May 2026 09:10:51.826,183.739
921,20 May 2026 09:11:50.671,20 May 2026 09:12:47.596,56.926
922,20 May 2026 20:33:38.241,20 May 2026 20:38:32.215,293.973
923,20 May 2026 22:07:52.290,20 May 2026 22:14:08.533,376.243
924,21 May 2026 07:13:14.578,21 May 2026 07:20:43.234,448.656
925,21 May 2026 08:49:05.559,21 May 2026 08:54:34.326,328.768
926,21 May 2026 20:15:21.704,21 May 2026 20:20:36.220,314.516
927,21 May 2026 21:48:41.501,21 May 2026 21:55:19.166,397.664
928,22 May 2026 06:55:19.410,22 May 2026 06:56:42.946,83.537
929,22 May 2026 06:56:51.467,22 May 2026 07:01:02.977,251.510
930,22 May 2026 07:01:06.890,22 May 2026 07:01:31.774,24.884
931,22 May 2026 08:30:24.212,22 May 2026 08:36:07.109,342.897
932,22 May 2026 19:56:48.179,22 May 2026 20:02:03.644,315.464
933,22 May 2026 20:02:17.553,22 May 2026 20:02:31.400,13.847
934,22 May 2026 20:02:42.933,22 May 2026 20:02:49.095,6.161
935,22 May 2026 21:29:42.136,22 May 2026 21:36:12.085,389.949
936,23 May 2026 06:38:00.352,23 May 2026 06:38:34.997,34.645
937,23 May 2026 06:38:45.201,23 May 2026 06:38:52.707,7.506
938,23 May 2026 06:39:05.238,23 May 2026 06:39:45.746,40.508
939,23 May 2026 06:39:54.121,23 May 2026 06:41:12.165,78.044
940,23 May 2026 08:11:42.517,23 May 2026 08:17:30.520,348.003
941,23 May 2026 19:38:58.290,23 May 2026 19:39:02.469,4.179
942,23 May 2026 19:39:12.659,23 May 2026 19:39:57.120,44.462
943,23 May 2026 19:40:10.093,23 May 2026 19:40:17.325,7.233
944,23 May 2026 19:40:26.866,23 May 2026 19:41:12.544,45.679
945,23 May 2026 19:41:36.840,23 May 2026 19:42:59.806,82.967
946,23 May 2026 21:10:51.002,23 May 2026 21:17:03.260,372.258
947,24 May 2026 07:53:02.027,24 May 2026 07:58:46.304,344.277
948,24 May 2026 09:26:34.883,24 May 2026 09:29:48.745,193.862
949,24 May 2026 20:52:07.176,24 May 2026 20:57:54.785,347.609
950,24 May 2026 22:27:37.473,24 May 2026 22:29:11.144,93.671
951,24 May 2026 22:30:23.059,24 May 2026 22:31:48.011,84.952
952,25 May 2026 07:32:40.146,25 May 2026 07:39:54.790,434.644
953,25 May 2026 09:08:00.146,25 May 2026 09:11:03.499,183.352
954,25 May 2026 09:12:02.396,25 May 2026 09:12:59.555,57.159
955,25 May 2026 20:33:49.757,25 May 2026 20:38:44.625,294.867
956,25 May 2026 22:08:04.300,25 May 2026 22:14:20.691,376.390
957,26 May 2026 07:13:26.485,26 May 2026 07:20:54.978,448.492
958,26 May 2026 08:49:17.582,26 May 2026 08:54:46.200,328.619
959,26 May 2026 20:15:33.075,26 May 2026 20:20:48.556,315.481
960,26 May 2026 21:48:53.550,26 May 2026 21:55:31.648,398.098
961,27 May 2026 06:55:31.338,27 May 2026 06:56:54.699,83.361
962,27 May 2026 06:57:03.817,27 May 2026 07:01:14.558,250.740
963,27 May 2026 07:01:18.761,27 May 2026 07:01:43.185,24.424
964,27 May 2026 08:30:36.197,27 May 2026 08:36:18.933,342.736
965,27 May 2026 19:56:59.757,27 May 2026 20:02:16.000,316.242
966,27 May 2026 20:02:29.931,27 May 2026 20:02:44.353,14.422
967,27 May 2026 20:02:55.345,27 May 2026 20:03:01.516,6.171
968,27 May 2026 21:29:54.227,27 May 2026 21:36:24.595,390.367
969,28 May 2026 06:38:12.095,28 May 2026 06:38:46.749,34.654
970,28 May 2026 06:38:56.959,28 May 2026 06:39:04.474,7.514
971,28 May 2026 06:39:17.322,28 May 2026 06:39:57.535,40.214
972,28 May 2026 06:40:05.911,28 May 2026 06:41:23.989,78.079
973,28 May 2026 08:11:54.465,28 May 2026 08:17:42.309,347.844
974,28 May 2026 19:39:10.909,28 May 2026 19:39:14.557,3.648
975,28 May 2026 19:39:24.758,28 May 2026 19:40:09.266,44.508
976,28 May 2026 19:40:22.249,28 May 2026 19:40:29.495,7.246
977,28 May 2026 19:40:39.042,28 May 2026 19:41:24.772,45.730
978,28 May 2026 19:41:34.248,28 May 2026 19:43:13.027,98.779
979,28 May 2026 21:11:03.141,28 May 2026 21:17:15.803,372.662
980,29 May 2026 07:53:13.945,29 May 2026 07:58:58.065,344.120
981,29 May 2026 09:26:46.791,29 May 2026 09:30:00.497,193.706
982,29 May 2026 20:52:19.371,29 May 2026 20:58:07.356,347.984
983,29 May 2026 22:27:49.636,29 May 2026 22:29:23.327,93.691
984,29 May 2026 22:30:35.243,29 May 2026 22:32:00.255,85.011
985,30 May 2026 07:32:51.593,30 May 2026 07:40:06.524,434.931
986,30 May 2026 09:08:12.047,30 May 2026 09:11:15.306,183.259
987,30 May 2026 09:12:14.082,30 May 2026 09:13:11.441,57.360
