HERON_access/Outputs/sensor_sensor_access.csv

"Access","Start Time (UTCG)","Stop Time (UTCG)","Duration (sec)"
1,1 Jan 2026 07:07:27.217,1 Jan 2026 07:14:58.974,451.758
2,1 Jan 2026 08:43:17.594,1 Jan 2026 08:48:47.167,329.573
3,1 Jan 2026 20:09:34.909,1 Jan 2026 20:14:50.770,315.861
4,1 Jan 2026 21:43:00.987,1 Jan 2026 21:49:38.510,397.523
5,2 Jan 2026 06:49:30.743,2 Jan 2026 06:55:48.476,377.734
6,2 Jan 2026 08:24:36.440,2 Jan 2026 08:30:21.017,344.577
7,2 Jan 2026 19:51:04.551,2 Jan 2026 19:56:18.756,314.205
8,2 Jan 2026 19:56:32.337,2 Jan 2026 19:56:50.252,17.915
9,2 Jan 2026 19:56:57.100,2 Jan 2026 19:57:03.104,6.004
10,2 Jan 2026 21:24:00.995,2 Jan 2026 21:30:31.447,390.452
11,3 Jan 2026 06:32:03.335,3 Jan 2026 06:32:06.062,2.727
12,3 Jan 2026 06:32:16.481,3 Jan 2026 06:32:50.744,34.263
13,3 Jan 2026 06:33:00.848,3 Jan 2026 06:34:01.003,60.155
14,3 Jan 2026 06:34:09.079,3 Jan 2026 06:35:26.528,77.449
15,3 Jan 2026 06:35:37.607,3 Jan 2026 06:35:40.847,3.240
16,3 Jan 2026 08:05:54.885,3 Jan 2026 08:11:45.246,350.361
17,3 Jan 2026 19:33:10.321,3 Jan 2026 19:33:21.910,11.589
18,3 Jan 2026 19:33:31.995,3 Jan 2026 19:34:17.443,45.447
19,3 Jan 2026 19:34:21.583,3 Jan 2026 19:34:35.864,14.281
20,3 Jan 2026 19:34:45.279,3 Jan 2026 19:35:30.268,44.989
21,3 Jan 2026 19:35:39.198,3 Jan 2026 19:37:27.285,108.087
22,3 Jan 2026 21:05:09.368,3 Jan 2026 21:11:22.560,373.192
23,4 Jan 2026 07:47:14.559,4 Jan 2026 07:53:01.730,347.170
24,4 Jan 2026 09:20:53.968,4 Jan 2026 09:24:04.655,190.686
25,4 Jan 2026 20:46:25.059,4 Jan 2026 20:52:14.001,348.943
26,4 Jan 2026 22:22:00.581,4 Jan 2026 22:23:28.716,88.135
27,4 Jan 2026 22:24:41.593,4 Jan 2026 22:25:59.334,77.741
28,5 Jan 2026 07:27:02.918,5 Jan 2026 07:34:10.872,427.954
29,5 Jan 2026 09:02:12.961,5 Jan 2026 09:05:20.092,187.131
30,5 Jan 2026 09:06:20.002,5 Jan 2026 09:07:11.722,51.720
31,5 Jan 2026 20:27:54.057,5 Jan 2026 20:27:56.409,2.352
32,5 Jan 2026 20:28:07.425,5 Jan 2026 20:33:03.825,296.400
33,5 Jan 2026 22:02:24.784,5 Jan 2026 22:08:34.931,370.148
34,6 Jan 2026 07:07:39.900,6 Jan 2026 07:15:11.764,451.865
35,6 Jan 2026 08:43:30.547,6 Jan 2026 08:49:00.056,329.509
36,6 Jan 2026 20:09:48.059,6 Jan 2026 20:15:02.898,314.839
37,6 Jan 2026 21:43:13.013,6 Jan 2026 21:49:50.186,397.174
38,7 Jan 2026 06:49:43.634,7 Jan 2026 06:56:01.245,377.611
39,7 Jan 2026 08:24:49.405,7 Jan 2026 08:30:33.851,344.446
40,7 Jan 2026 19:51:17.251,7 Jan 2026 19:56:30.825,313.574
41,7 Jan 2026 19:56:44.416,7 Jan 2026 19:57:01.511,17.095
42,7 Jan 2026 19:57:09.189,7 Jan 2026 19:57:15.197,6.008
43,7 Jan 2026 21:24:13.027,7 Jan 2026 21:30:43.109,390.081
44,8 Jan 2026 06:32:16.205,8 Jan 2026 06:32:18.814,2.609
45,8 Jan 2026 06:32:29.239,8 Jan 2026 06:33:03.505,34.267
46,8 Jan 2026 06:33:13.608,8 Jan 2026 06:34:13.770,60.162
47,8 Jan 2026 06:34:21.842,8 Jan 2026 06:35:39.291,77.449
48,8 Jan 2026 06:35:50.369,8 Jan 2026 06:35:52.972,2.603
49,8 Jan 2026 08:06:07.851,8 Jan 2026 08:11:58.034,350.183
50,8 Jan 2026 19:33:22.375,8 Jan 2026 19:33:33.906,11.530
51,8 Jan 2026 19:33:43.992,8 Jan 2026 19:34:28.175,44.183
52,8 Jan 2026 19:34:36.780,8 Jan 2026 19:34:47.857,11.078
53,8 Jan 2026 19:34:57.272,8 Jan 2026 19:35:42.267,44.995
54,8 Jan 2026 19:35:51.196,8 Jan 2026 19:37:39.102,107.906
55,8 Jan 2026 21:05:21.392,8 Jan 2026 21:11:34.205,372.813
56,9 Jan 2026 07:47:27.529,9 Jan 2026 07:53:14.477,346.949
57,9 Jan 2026 09:21:06.440,9 Jan 2026 09:24:17.389,190.949
58,9 Jan 2026 20:46:37.070,9 Jan 2026 20:52:25.633,348.564
59,9 Jan 2026 22:22:12.246,9 Jan 2026 22:23:40.767,88.521
60,9 Jan 2026 22:24:53.567,9 Jan 2026 22:26:11.754,78.187
61,10 Jan 2026 07:27:15.485,10 Jan 2026 07:34:23.584,428.099
62,10 Jan 2026 09:02:25.919,10 Jan 2026 09:05:32.478,186.558
63,10 Jan 2026 09:06:32.639,10 Jan 2026 09:07:24.613,51.974
64,10 Jan 2026 20:28:06.862,10 Jan 2026 20:28:08.172,1.310
65,10 Jan 2026 20:28:20.046,10 Jan 2026 20:33:15.442,295.396
66,10 Jan 2026 22:02:36.621,10 Jan 2026 22:05:34.716,178.095
67,10 Jan 2026 22:05:35.560,10 Jan 2026 22:08:47.093,191.534
68,11 Jan 2026 07:07:52.508,11 Jan 2026 07:15:24.446,451.938
69,11 Jan 2026 08:43:43.505,11 Jan 2026 08:49:12.848,329.343
70,11 Jan 2026 20:10:00.946,11 Jan 2026 20:15:14.911,313.965
71,11 Jan 2026 21:43:24.895,11 Jan 2026 21:50:01.822,396.927
72,12 Jan 2026 06:49:56.401,12 Jan 2026 06:51:24.530,88.129
73,12 Jan 2026 06:51:24.762,12 Jan 2026 06:56:13.904,289.142
74,12 Jan 2026 08:25:02.360,12 Jan 2026 08:30:46.573,344.213
75,12 Jan 2026 19:51:29.717,12 Jan 2026 19:56:42.797,313.080
76,12 Jan 2026 19:56:56.393,12 Jan 2026 19:57:12.853,16.460
77,12 Jan 2026 19:57:21.189,12 Jan 2026 19:57:27.203,6.013
78,12 Jan 2026 21:24:24.922,12 Jan 2026 21:30:54.732,389.809
79,13 Jan 2026 06:32:28.923,13 Jan 2026 06:32:31.456,2.533
80,13 Jan 2026 06:32:41.889,13 Jan 2026 06:33:16.154,34.265
81,13 Jan 2026 06:33:26.259,13 Jan 2026 06:34:26.183,59.924
82,13 Jan 2026 06:34:34.490,13 Jan 2026 06:35:51.919,77.429
83,13 Jan 2026 06:36:02.997,13 Jan 2026 06:36:04.816,1.818
84,13 Jan 2026 08:06:20.802,13 Jan 2026 08:12:10.700,349.899
85,13 Jan 2026 19:33:34.368,13 Jan 2026 19:33:45.775,11.407
86,13 Jan 2026 19:33:55.860,13 Jan 2026 19:34:39.782,43.922
87,13 Jan 2026 19:34:51.323,13 Jan 2026 19:34:59.729,8.406
88,13 Jan 2026 19:35:09.146,13 Jan 2026 19:35:54.156,45.010
89,13 Jan 2026 19:36:03.085,13 Jan 2026 19:37:50.751,107.667
90,13 Jan 2026 21:05:33.289,13 Jan 2026 21:11:45.825,372.536
91,14 Jan 2026 07:47:40.463,14 Jan 2026 07:53:27.094,346.631
92,14 Jan 2026 09:21:18.737,14 Jan 2026 09:24:29.993,191.257
93,14 Jan 2026 20:46:48.958,14 Jan 2026 20:52:37.251,348.292
94,14 Jan 2026 22:22:23.814,14 Jan 2026 22:23:52.691,88.877
95,14 Jan 2026 22:25:05.428,14 Jan 2026 22:26:24.019,78.591
96,15 Jan 2026 07:27:27.937,15 Jan 2026 07:34:36.159,428.222
97,15 Jan 2026 09:02:38.839,15 Jan 2026 09:05:44.624,185.784
98,15 Jan 2026 09:06:45.137,15 Jan 2026 09:07:37.390,52.252
99,15 Jan 2026 20:28:19.400,15 Jan 2026 20:28:19.785,0.385
100,15 Jan 2026 20:28:32.388,15 Jan 2026 20:33:27.060,294.672
101,15 Jan 2026 22:02:48.353,15 Jan 2026 22:05:46.279,177.927
102,15 Jan 2026 22:05:47.737,15 Jan 2026 22:08:59.132,191.395
103,16 Jan 2026 07:08:05.002,16 Jan 2026 07:15:36.985,451.984
104,16 Jan 2026 08:43:56.415,16 Jan 2026 08:49:25.511,329.096
105,16 Jan 2026 20:10:13.519,16 Jan 2026 20:15:26.864,313.345
106,16 Jan 2026 21:43:36.674,16 Jan 2026 21:50:13.475,396.801
107,17 Jan 2026 06:50:09.019,17 Jan 2026 06:51:37.059,88.040
108,17 Jan 2026 06:51:37.989,17 Jan 2026 06:56:26.416,288.427
109,17 Jan 2026 08:25:15.249,17 Jan 2026 08:30:59.155,343.906
110,17 Jan 2026 19:51:41.941,17 Jan 2026 19:56:54.710,312.769
111,17 Jan 2026 19:57:08.322,17 Jan 2026 19:57:24.372,16.050
112,17 Jan 2026 19:57:33.133,17 Jan 2026 19:57:39.153,6.019
113,17 Jan 2026 21:24:36.722,17 Jan 2026 21:31:06.388,389.666
114,18 Jan 2026 06:32:41.471,18 Jan 2026 06:32:43.959,2.488
115,18 Jan 2026 06:32:54.395,18 Jan 2026 06:33:28.655,34.260
116,18 Jan 2026 06:33:38.764,18 Jan 2026 06:34:38.680,59.917
117,18 Jan 2026 06:34:46.982,18 Jan 2026 06:36:04.401,77.419
118,18 Jan 2026 06:36:15.473,18 Jan 2026 06:36:16.418,0.946
119,18 Jan 2026 08:06:33.668,18 Jan 2026 08:12:23.213,349.545
120,18 Jan 2026 19:33:46.334,18 Jan 2026 19:33:57.546,11.212
121,18 Jan 2026 19:34:07.636,18 Jan 2026 19:34:51.571,43.935
122,18 Jan 2026 19:35:04.385,18 Jan 2026 19:35:11.522,7.138
123,18 Jan 2026 19:35:20.939,18 Jan 2026 19:36:05.968,45.029
124,18 Jan 2026 19:36:14.907,18 Jan 2026 19:38:02.275,107.369
125,18 Jan 2026 21:05:45.094,18 Jan 2026 21:11:57.480,372.386
126,19 Jan 2026 07:47:53.308,19 Jan 2026 07:53:39.552,346.244
127,19 Jan 2026 09:21:30.840,19 Jan 2026 09:24:42.442,191.602
128,19 Jan 2026 20:47:00.768,19 Jan 2026 20:52:48.919,348.151
129,19 Jan 2026 22:22:35.342,19 Jan 2026 22:24:04.532,89.190
130,19 Jan 2026 22:25:17.218,19 Jan 2026 22:26:36.154,78.936
131,20 Jan 2026 07:27:40.234,20 Jan 2026 07:34:48.569,428.335
132,20 Jan 2026 09:02:51.671,20 Jan 2026 09:05:56.555,184.884
133,20 Jan 2026 09:06:57.474,20 Jan 2026 09:07:50.021,52.547
134,20 Jan 2026 20:28:44.486,20 Jan 2026 20:33:38.732,294.247
135,20 Jan 2026 22:03:00.026,20 Jan 2026 22:05:58.058,178.032
136,20 Jan 2026 22:05:59.579,20 Jan 2026 22:09:11.088,191.509
137,21 Jan 2026 07:08:17.489,21 Jan 2026 07:15:49.355,451.866
138,21 Jan 2026 08:44:09.215,21 Jan 2026 08:49:38.013,328.798
139,21 Jan 2026 20:10:25.769,21 Jan 2026 20:15:38.787,313.018
140,21 Jan 2026 21:43:48.394,21 Jan 2026 21:50:25.200,396.807
141,22 Jan 2026 06:50:21.476,22 Jan 2026 06:51:49.423,87.948
142,22 Jan 2026 06:51:51.218,22 Jan 2026 06:56:38.754,287.537
143,22 Jan 2026 08:25:28.023,22 Jan 2026 08:31:11.568,343.544
144,22 Jan 2026 19:51:53.927,22 Jan 2026 19:57:06.611,312.683
145,22 Jan 2026 19:57:20.237,22 Jan 2026 19:57:36.129,15.892
146,22 Jan 2026 19:57:45.079,22 Jan 2026 19:57:51.105,6.026
147,22 Jan 2026 21:24:48.467,22 Jan 2026 21:31:18.123,389.657
148,23 Jan 2026 06:32:53.853,23 Jan 2026 06:32:56.291,2.438
149,23 Jan 2026 06:33:06.740,23 Jan 2026 06:33:40.995,34.255
150,23 Jan 2026 06:33:51.101,23 Jan 2026 06:33:58.512,7.411
151,23 Jan 2026 06:33:59.837,23 Jan 2026 06:34:51.006,51.169
152,23 Jan 2026 06:34:59.311,23 Jan 2026 06:36:16.709,77.397
153,23 Jan 2026 08:06:46.413,23 Jan 2026 08:12:35.557,349.143
154,23 Jan 2026 19:33:58.329,23 Jan 2026 19:34:09.277,10.948
155,23 Jan 2026 19:34:19.367,23 Jan 2026 19:35:03.324,43.957
156,23 Jan 2026 19:35:16.139,23 Jan 2026 19:35:23.285,7.146
157,23 Jan 2026 19:35:32.707,23 Jan 2026 19:36:17.766,45.059
158,23 Jan 2026 19:36:26.705,23 Jan 2026 19:38:13.725,107.020
159,23 Jan 2026 21:05:56.855,23 Jan 2026 21:12:09.231,372.375
160,24 Jan 2026 07:48:06.016,24 Jan 2026 07:53:51.837,345.821
161,24 Jan 2026 09:21:42.744,24 Jan 2026 09:24:54.725,191.980
162,24 Jan 2026 20:47:12.547,24 Jan 2026 20:53:00.688,348.142
163,24 Jan 2026 22:22:46.883,24 Jan 2026 22:24:16.336,89.453
164,24 Jan 2026 22:25:28.978,24 Jan 2026 22:26:48.204,79.226
165,25 Jan 2026 07:27:52.350,25 Jan 2026 07:35:00.806,428.455
166,25 Jan 2026 09:03:04.357,25 Jan 2026 09:06:08.319,183.961
167,25 Jan 2026 09:07:09.633,25 Jan 2026 09:08:02.486,52.852
168,25 Jan 2026 20:28:56.355,25 Jan 2026 20:33:50.514,294.160
169,25 Jan 2026 22:03:11.690,25 Jan 2026 22:06:10.109,178.419
170,25 Jan 2026 22:06:11.110,25 Jan 2026 22:09:23.010,191.900
171,26 Jan 2026 07:08:30.057,26 Jan 2026 07:16:01.550,451.493
172,26 Jan 2026 08:44:21.867,26 Jan 2026 08:49:50.345,328.478
173,26 Jan 2026 20:10:37.717,26 Jan 2026 20:15:50.738,313.021
174,26 Jan 2026 21:44:00.106,26 Jan 2026 21:50:37.055,396.949
175,27 Jan 2026 06:50:33.765,27 Jan 2026 06:52:01.618,87.853
176,27 Jan 2026 06:52:04.298,27 Jan 2026 06:56:50.914,286.617
177,27 Jan 2026 08:25:40.645,27 Jan 2026 08:31:23.811,343.165
178,27 Jan 2026 19:52:05.719,27 Jan 2026 19:57:18.552,312.833
179,27 Jan 2026 19:57:32.197,27 Jan 2026 19:57:48.163,15.966
180,27 Jan 2026 19:57:57.067,27 Jan 2026 19:58:03.101,6.033
181,27 Jan 2026 21:25:00.210,27 Jan 2026 21:31:29.995,389.785
182,28 Jan 2026 06:33:06.083,28 Jan 2026 06:33:08.457,2.374
183,28 Jan 2026 06:33:18.912,28 Jan 2026 06:33:53.162,34.250
184,28 Jan 2026 06:34:03.266,28 Jan 2026 06:34:10.676,7.410
185,28 Jan 2026 06:34:14.800,28 Jan 2026 06:35:03.169,48.369
186,28 Jan 2026 06:35:11.470,28 Jan 2026 06:36:28.863,77.393
187,28 Jan 2026 08:06:58.993,28 Jan 2026 08:12:47.731,348.738
188,28 Jan 2026 19:34:10.407,28 Jan 2026 19:34:21.010,10.604
189,28 Jan 2026 19:34:31.103,28 Jan 2026 19:35:15.087,43.983
190,28 Jan 2026 19:35:27.915,28 Jan 2026 19:35:35.066,7.151
191,28 Jan 2026 19:35:44.498,28 Jan 2026 19:36:29.588,45.090
192,28 Jan 2026 19:36:38.535,28 Jan 2026 19:38:25.151,106.616
193,28 Jan 2026 21:06:08.626,28 Jan 2026 21:12:21.120,372.494
194,29 Jan 2026 07:48:18.553,29 Jan 2026 07:54:03.956,345.404
195,29 Jan 2026 09:21:54.468,29 Jan 2026 09:25:06.844,192.376
196,29 Jan 2026 20:47:24.347,29 Jan 2026 20:53:12.610,348.263
197,29 Jan 2026 22:22:58.496,29 Jan 2026 22:24:28.152,89.656
198,29 Jan 2026 22:25:40.763,29 Jan 2026 22:27:00.218,79.455
199,30 Jan 2026 07:28:04.284,30 Jan 2026 07:35:12.877,428.594
200,30 Jan 2026 09:03:16.878,30 Jan 2026 09:06:19.970,183.092
201,30 Jan 2026 09:07:21.633,30 Jan 2026 09:08:14.781,53.148
202,30 Jan 2026 20:29:08.049,30 Jan 2026 20:34:02.460,294.411
203,30 Jan 2026 22:03:23.404,30 Jan 2026 22:09:34.949,371.545
204,31 Jan 2026 07:08:42.998,31 Jan 2026 07:16:13.580,450.582
205,31 Jan 2026 08:44:34.347,31 Jan 2026 08:50:02.513,328.166
206,31 Jan 2026 20:10:49.406,31 Jan 2026 20:16:02.758,313.352
207,31 Jan 2026 21:44:11.866,31 Jan 2026 21:50:49.072,397.206
208,1 Feb 2026 06:50:45.909,1 Feb 2026 06:52:13.650,87.741
209,1 Feb 2026 06:52:17.164,1 Feb 2026 06:57:02.905,285.741
210,1 Feb 2026 08:25:53.082,1 Feb 2026 08:31:35.896,342.814
211,1 Feb 2026 19:52:17.366,1 Feb 2026 19:57:30.580,313.214
212,1 Feb 2026 19:57:44.239,1 Feb 2026 19:58:00.502,16.263
213,1 Feb 2026 19:58:09.146,1 Feb 2026 19:58:15.182,6.036
214,1 Feb 2026 21:25:12.006,1 Feb 2026 21:31:42.039,390.033
215,2 Feb 2026 06:33:18.192,2 Feb 2026 06:33:20.460,2.268
216,2 Feb 2026 06:33:30.922,2 Feb 2026 06:34:05.171,34.249
217,2 Feb 2026 06:34:15.279,2 Feb 2026 06:34:22.688,7.409
218,2 Feb 2026 06:34:29.413,2 Feb 2026 06:35:15.187,45.774
219,2 Feb 2026 06:35:23.488,2 Feb 2026 06:36:40.879,77.391
220,2 Feb 2026 08:07:11.384,2 Feb 2026 08:12:59.753,348.369
221,2 Feb 2026 19:34:22.606,2 Feb 2026 19:34:32.801,10.195
222,2 Feb 2026 19:34:42.901,2 Feb 2026 19:35:26.925,44.023
223,2 Feb 2026 19:35:39.760,2 Feb 2026 19:35:46.918,7.157
224,2 Feb 2026 19:35:56.357,2 Feb 2026 19:36:41.486,45.129
225,2 Feb 2026 19:36:50.446,2 Feb 2026 19:38:36.623,106.177
226,2 Feb 2026 21:06:20.457,2 Feb 2026 21:12:33.192,372.735
227,3 Feb 2026 07:48:30.901,3 Feb 2026 07:54:15.927,345.026
228,3 Feb 2026 09:22:06.038,3 Feb 2026 09:25:18.811,192.774
229,3 Feb 2026 20:47:36.219,3 Feb 2026 20:53:24.714,348.495
230,3 Feb 2026 22:23:10.233,3 Feb 2026 22:24:40.026,89.793
231,3 Feb 2026 22:25:52.629,3 Feb 2026 22:27:12.243,79.613
232,4 Feb 2026 07:28:16.034,4 Feb 2026 07:35:24.804,428.769
233,4 Feb 2026 09:03:29.205,4 Feb 2026 09:06:31.582,182.377
234,4 Feb 2026 09:07:33.490,4 Feb 2026 09:08:26.921,53.432
235,4 Feb 2026 20:29:19.616,4 Feb 2026 20:34:14.592,294.975
236,4 Feb 2026 22:03:35.215,4 Feb 2026 22:09:46.952,371.737
237,5 Feb 2026 07:08:55.712,5 Feb 2026 07:16:25.465,449.753
238,5 Feb 2026 08:44:46.629,5 Feb 2026 08:50:14.537,327.908
239,5 Feb 2026 20:11:00.899,5 Feb 2026 20:16:14.892,313.993
240,5 Feb 2026 21:44:23.720,5 Feb 2026 21:51:01.280,397.561
241,6 Feb 2026 06:50:57.934,6 Feb 2026 06:52:25.540,87.606
242,6 Feb 2026 06:52:29.781,6 Feb 2026 06:57:14.748,284.967
243,6 Feb 2026 08:26:05.324,6 Feb 2026 08:31:47.846,342.523
244,6 Feb 2026 19:52:28.932,6 Feb 2026 19:57:42.727,313.795
245,6 Feb 2026 19:57:56.404,6 Feb 2026 19:58:13.126,16.723
246,6 Feb 2026 19:58:21.345,6 Feb 2026 19:58:27.394,6.049
247,6 Feb 2026 21:25:23.899,6 Feb 2026 21:31:54.274,390.375
248,7 Feb 2026 06:33:30.224,7 Feb 2026 06:33:32.324,2.099
249,7 Feb 2026 06:33:42.796,7 Feb 2026 06:34:17.053,34.257
250,7 Feb 2026 06:34:27.164,7 Feb 2026 06:34:34.574,7.409
251,7 Feb 2026 06:34:43.472,7 Feb 2026 06:35:27.080,43.608
252,7 Feb 2026 06:35:35.381,7 Feb 2026 06:36:52.779,77.398
253,7 Feb 2026 08:07:23.587,7 Feb 2026 08:13:11.650,348.063
254,7 Feb 2026 19:34:34.960,7 Feb 2026 19:34:44.691,9.731
255,7 Feb 2026 19:34:54.804,7 Feb 2026 19:35:38.864,44.059
256,7 Feb 2026 19:35:50.214,7 Feb 2026 19:35:58.879,8.664
257,7 Feb 2026 19:36:08.326,7 Feb 2026 19:36:53.505,45.180
258,7 Feb 2026 19:37:02.473,7 Feb 2026 19:38:48.189,105.716
259,7 Feb 2026 21:06:32.393,7 Feb 2026 21:12:45.456,373.064
260,8 Feb 2026 07:48:43.060,8 Feb 2026 07:54:27.781,344.721
261,8 Feb 2026 09:22:17.501,8 Feb 2026 09:25:30.661,193.160
262,8 Feb 2026 20:47:48.203,8 Feb 2026 20:53:37.016,348.813
263,8 Feb 2026 22:23:22.126,8 Feb 2026 22:24:52.007,89.881
264,8 Feb 2026 22:26:04.606,8 Feb 2026 22:27:24.334,79.728
265,9 Feb 2026 07:28:27.639,9 Feb 2026 07:35:36.620,428.981
266,9 Feb 2026 09:03:41.345,9 Feb 2026 09:06:43.224,181.879
267,9 Feb 2026 09:07:45.248,9 Feb 2026 09:08:38.929,53.681
268,9 Feb 2026 20:29:31.129,9 Feb 2026 20:34:26.923,295.793
269,9 Feb 2026 22:03:47.161,9 Feb 2026 22:09:59.062,371.902
270,10 Feb 2026 07:09:08.169,10 Feb 2026 07:16:37.245,449.076
271,10 Feb 2026 08:44:58.729,10 Feb 2026 08:50:26.450,327.721
272,10 Feb 2026 20:11:12.292,10 Feb 2026 20:16:27.166,314.874
273,10 Feb 2026 21:44:35.707,10 Feb 2026 21:51:13.683,397.976
274,11 Feb 2026 06:51:09.882,11 Feb 2026 06:52:37.320,87.438
275,11 Feb 2026 06:52:42.122,11 Feb 2026 06:57:26.484,284.363
276,11 Feb 2026 08:26:17.386,11 Feb 2026 08:31:59.701,342.316
277,11 Feb 2026 19:52:40.494,11 Feb 2026 19:57:55.021,314.527
278,11 Feb 2026 19:58:08.717,11 Feb 2026 19:58:26.003,17.286
279,11 Feb 2026 19:58:33.692,11 Feb 2026 19:58:39.748,6.056
280,11 Feb 2026 21:25:35.928,11 Feb 2026 21:32:06.708,390.779
281,12 Feb 2026 06:33:42.229,12 Feb 2026 06:33:44.093,1.864
282,12 Feb 2026 06:33:54.571,12 Feb 2026 06:34:28.837,34.267
283,12 Feb 2026 06:34:38.954,12 Feb 2026 06:34:46.365,7.411
284,12 Feb 2026 06:34:56.598,12 Feb 2026 06:35:38.891,42.293
285,12 Feb 2026 06:35:47.196,12 Feb 2026 06:37:04.618,77.422
286,12 Feb 2026 08:07:35.610,12 Feb 2026 08:13:23.465,347.854
287,12 Feb 2026 19:34:47.491,12 Feb 2026 19:34:56.719,9.228
288,12 Feb 2026 19:35:06.843,12 Feb 2026 19:35:51.090,44.247
289,12 Feb 2026 19:36:00.019,12 Feb 2026 19:36:10.983,10.964
290,12 Feb 2026 19:36:20.443,12 Feb 2026 19:37:05.668,45.225
291,12 Feb 2026 19:37:14.648,12 Feb 2026 19:38:59.898,105.250
292,12 Feb 2026 21:06:44.470,12 Feb 2026 21:12:57.919,373.450
293,13 Feb 2026 07:48:55.045,13 Feb 2026 07:54:39.564,344.518
294,13 Feb 2026 09:22:28.913,13 Feb 2026 09:25:42.436,193.523
295,13 Feb 2026 20:48:00.336,13 Feb 2026 20:53:49.515,349.180
296,13 Feb 2026 22:23:34.208,13 Feb 2026 22:25:04.129,89.920
297,13 Feb 2026 22:26:16.731,13 Feb 2026 22:27:36.532,79.801
298,14 Feb 2026 07:28:39.134,14 Feb 2026 07:35:48.374,429.240
299,14 Feb 2026 09:03:53.312,14 Feb 2026 09:06:54.972,181.660
300,14 Feb 2026 09:07:56.951,14 Feb 2026 09:08:50.847,53.896
301,14 Feb 2026 20:29:42.670,14 Feb 2026 20:34:39.450,296.780
302,14 Feb 2026 22:03:59.275,14 Feb 2026 22:10:11.314,372.039
303,15 Feb 2026 07:09:20.369,15 Feb 2026 07:16:48.968,448.599
304,15 Feb 2026 08:45:10.668,15 Feb 2026 08:50:38.297,327.628
305,15 Feb 2026 20:11:23.683,15 Feb 2026 20:16:39.593,315.909
306,15 Feb 2026 21:44:47.858,15 Feb 2026 21:51:26.274,398.417
307,16 Feb 2026 06:51:21.800,16 Feb 2026 06:52:49.044,87.244
308,16 Feb 2026 06:52:54.206,16 Feb 2026 06:57:38.161,283.955
309,16 Feb 2026 08:26:29.287,16 Feb 2026 08:32:11.508,342.221
310,16 Feb 2026 19:52:52.126,16 Feb 2026 19:58:07.475,315.349
311,16 Feb 2026 19:58:21.192,16 Feb 2026 19:58:39.068,17.876
312,16 Feb 2026 19:58:46.201,16 Feb 2026 19:58:52.264,6.063
313,16 Feb 2026 21:25:48.122,16 Feb 2026 21:32:19.327,391.205
314,17 Feb 2026 06:33:54.253,17 Feb 2026 06:33:55.807,1.555
315,17 Feb 2026 06:34:06.295,17 Feb 2026 06:34:40.578,34.283
316,17 Feb 2026 06:34:50.698,17 Feb 2026 06:34:58.118,7.420
317,17 Feb 2026 06:35:08.556,17 Feb 2026 06:35:50.672,42.116
318,17 Feb 2026 06:35:58.982,17 Feb 2026 06:37:16.442,77.460
319,17 Feb 2026 08:07:47.481,17 Feb 2026 08:13:35.246,347.764
320,17 Feb 2026 19:35:00.192,17 Feb 2026 19:35:08.910,8.719
321,17 Feb 2026 19:35:19.044,17 Feb 2026 19:36:04.333,45.289
322,17 Feb 2026 19:36:09.788,17 Feb 2026 19:36:23.255,13.467
323,17 Feb 2026 19:36:32.724,17 Feb 2026 19:37:18.000,45.276
324,17 Feb 2026 19:37:26.990,17 Feb 2026 19:39:11.786,104.796
325,17 Feb 2026 21:06:56.712,17 Feb 2026 21:13:10.560,373.848
326,18 Feb 2026 07:49:06.893,18 Feb 2026 07:54:51.324,344.432
327,18 Feb 2026 09:22:40.331,18 Feb 2026 09:25:54.181,193.850
328,18 Feb 2026 20:48:12.635,18 Feb 2026 20:54:02.192,349.557
329,18 Feb 2026 22:23:46.487,18 Feb 2026 22:25:16.408,89.921
330,18 Feb 2026 22:26:29.021,18 Feb 2026 22:27:48.871,79.850
331,19 Feb 2026 07:28:50.566,19 Feb 2026 07:36:00.114,429.548
332,19 Feb 2026 09:04:05.144,19 Feb 2026 09:07:06.887,181.743
333,19 Feb 2026 09:08:08.647,19 Feb 2026 09:09:02.722,54.074
334,19 Feb 2026 20:29:54.310,19 Feb 2026 20:34:52.146,297.836
335,19 Feb 2026 22:04:11.568,19 Feb 2026 22:10:23.724,372.155
336,20 Feb 2026 07:09:32.319,20 Feb 2026 07:17:00.682,448.363
337,20 Feb 2026 08:45:22.473,20 Feb 2026 08:50:50.125,327.652
338,20 Feb 2026 20:11:35.164,20 Feb 2026 20:16:52.180,317.016
339,20 Feb 2026 21:45:00.182,20 Feb 2026 21:51:39.023,398.841
340,21 Feb 2026 06:51:33.736,21 Feb 2026 06:53:00.750,87.014
341,21 Feb 2026 06:53:06.062,21 Feb 2026 06:57:49.830,283.768
342,21 Feb 2026 08:26:41.071,21 Feb 2026 08:32:23.316,342.245
343,21 Feb 2026 19:53:03.898,21 Feb 2026 19:58:20.085,316.186
344,21 Feb 2026 19:58:33.817,21 Feb 2026 19:58:52.245,18.428
345,21 Feb 2026 19:58:58.862,21 Feb 2026 19:59:04.931,6.070
346,21 Feb 2026 21:26:00.484,21 Feb 2026 21:32:32.097,391.613
347,22 Feb 2026 06:34:06.346,22 Feb 2026 06:34:07.518,1.172
348,22 Feb 2026 06:34:18.014,22 Feb 2026 06:34:52.326,34.312
349,22 Feb 2026 06:35:02.454,22 Feb 2026 06:35:09.878,7.425
350,22 Feb 2026 06:35:20.330,22 Feb 2026 06:36:02.470,42.140
351,22 Feb 2026 06:36:10.784,22 Feb 2026 06:37:28.299,77.514
352,22 Feb 2026 08:07:59.247,22 Feb 2026 08:13:47.042,347.796
353,22 Feb 2026 19:35:13.051,22 Feb 2026 19:35:21.271,8.220
354,22 Feb 2026 19:35:31.416,22 Feb 2026 19:36:17.732,46.316
355,22 Feb 2026 19:36:19.810,22 Feb 2026 19:36:35.688,15.878
356,22 Feb 2026 19:36:45.172,22 Feb 2026 19:37:30.491,45.320
357,22 Feb 2026 19:37:39.493,22 Feb 2026 19:39:23.865,104.372
358,22 Feb 2026 21:07:09.124,22 Feb 2026 21:13:23.349,374.225
359,23 Feb 2026 07:49:18.642,23 Feb 2026 07:55:03.113,344.471
360,23 Feb 2026 09:22:51.819,23 Feb 2026 09:26:05.952,194.133
361,23 Feb 2026 20:48:25.103,23 Feb 2026 20:54:15.007,349.904
362,23 Feb 2026 22:23:58.948,23 Feb 2026 22:25:28.849,89.901
363,23 Feb 2026 22:26:41.478,23 Feb 2026 22:28:01.373,79.895
364,24 Feb 2026 07:29:01.996,24 Feb 2026 07:36:11.894,429.898
365,24 Feb 2026 09:04:16.884,24 Feb 2026 09:07:19.011,182.128
366,24 Feb 2026 09:08:20.390,24 Feb 2026 09:09:14.601,54.211
367,24 Feb 2026 20:30:06.113,24 Feb 2026 20:35:04.975,298.861
368,24 Feb 2026 22:04:24.035,24 Feb 2026 22:10:36.300,372.264
369,25 Feb 2026 07:09:44.064,25 Feb 2026 07:17:12.443,448.379
370,25 Feb 2026 08:45:34.208,25 Feb 2026 08:51:01.986,327.778
371,25 Feb 2026 20:11:46.827,25 Feb 2026 20:17:04.914,318.087
372,25 Feb 2026 21:45:12.677,25 Feb 2026 21:51:51.886,399.209
373,26 Feb 2026 06:51:45.741,26 Feb 2026 06:53:12.490,86.749
374,26 Feb 2026 06:53:17.738,26 Feb 2026 06:58:01.547,283.809
375,26 Feb 2026 08:26:52.792,26 Feb 2026 08:32:35.176,342.385
376,26 Feb 2026 19:53:15.856,26 Feb 2026 19:58:32.839,316.983
377,26 Feb 2026 19:58:46.585,26 Feb 2026 19:59:05.447,18.862
378,26 Feb 2026 19:59:11.659,26 Feb 2026 19:59:17.739,6.080
379,26 Feb 2026 21:26:13.017,26 Feb 2026 21:32:44.973,391.956
380,27 Feb 2026 06:34:18.552,27 Feb 2026 06:34:19.280,0.728
381,27 Feb 2026 06:34:29.785,27 Feb 2026 06:35:04.127,34.342
382,27 Feb 2026 06:35:14.263,27 Feb 2026 06:35:21.699,7.436
383,27 Feb 2026 06:35:31.980,27 Feb 2026 06:36:14.335,42.356
384,27 Feb 2026 06:36:22.655,27 Feb 2026 06:37:40.233,77.578
385,27 Feb 2026 08:08:10.963,27 Feb 2026 08:13:58.907,347.944
386,27 Feb 2026 19:35:26.041,27 Feb 2026 19:35:33.797,7.757
387,27 Feb 2026 19:35:43.950,27 Feb 2026 19:36:48.282,64.332
388,27 Feb 2026 19:36:57.773,27 Feb 2026 19:37:43.141,45.368
389,27 Feb 2026 19:37:52.148,27 Feb 2026 19:39:36.142,103.994
390,27 Feb 2026 21:07:21.701,27 Feb 2026 21:13:36.234,374.533
391,28 Feb 2026 07:49:30.353,28 Feb 2026 07:55:14.983,344.630
392,28 Feb 2026 09:23:03.424,28 Feb 2026 09:26:17.792,194.368
393,28 Feb 2026 20:48:37.731,28 Feb 2026 20:54:27.908,350.177
394,28 Feb 2026 22:24:11.562,28 Feb 2026 22:25:41.455,89.893
395,28 Feb 2026 22:26:54.087,28 Feb 2026 22:28:14.046,79.959
396,1 Mar 2026 07:29:13.478,1 Mar 2026 07:36:23.763,430.285
397,1 Mar 2026 09:04:28.591,1 Mar 2026 09:07:31.375,182.784
398,1 Mar 2026 09:08:32.234,1 Mar 2026 09:09:26.538,54.304
399,1 Mar 2026 20:30:05.087,1 Mar 2026 20:30:05.457,0.370
400,1 Mar 2026 20:30:18.125,1 Mar 2026 20:35:17.891,299.766
401,1 Mar 2026 22:04:36.659,1 Mar 2026 22:10:49.032,372.373
402,2 Mar 2026 07:09:55.669,2 Mar 2026 07:17:24.299,448.629
403,2 Mar 2026 08:45:45.916,2 Mar 2026 08:51:13.930,328.013
404,2 Mar 2026 20:11:58.738,2 Mar 2026 20:17:17.765,319.027
405,2 Mar 2026 21:45:25.325,2 Mar 2026 21:52:04.811,399.486
406,3 Mar 2026 06:51:57.859,3 Mar 2026 06:53:24.323,86.464
407,3 Mar 2026 06:53:29.315,3 Mar 2026 06:58:13.360,284.045
408,3 Mar 2026 08:27:04.496,3 Mar 2026 08:32:47.136,342.640
409,3 Mar 2026 19:53:28.046,3 Mar 2026 19:58:45.701,317.655
410,3 Mar 2026 19:58:59.462,3 Mar 2026 19:59:18.582,19.119
411,3 Mar 2026 19:59:24.562,3 Mar 2026 19:59:30.646,6.085
412,3 Mar 2026 21:26:25.697,3 Mar 2026 21:32:57.898,392.201
413,4 Mar 2026 06:34:30.904,4 Mar 2026 06:34:31.134,0.230
414,4 Mar 2026 06:34:41.652,4 Mar 2026 06:35:16.035,34.383
415,4 Mar 2026 06:35:26.180,4 Mar 2026 06:35:33.619,7.439
416,4 Mar 2026 06:35:42.882,4 Mar 2026 06:36:26.313,43.431
417,4 Mar 2026 06:36:34.642,4 Mar 2026 06:37:52.292,77.649
418,4 Mar 2026 08:08:22.679,4 Mar 2026 08:14:10.883,348.204
419,4 Mar 2026 19:35:39.114,4 Mar 2026 19:35:46.462,7.348
420,4 Mar 2026 19:35:56.625,4 Mar 2026 19:37:01.008,64.382
421,4 Mar 2026 19:37:10.507,4 Mar 2026 19:37:55.905,45.398
422,4 Mar 2026 19:38:04.925,4 Mar 2026 19:39:48.592,103.668
423,4 Mar 2026 21:07:34.415,4 Mar 2026 21:13:49.168,374.753
424,5 Mar 2026 07:49:42.081,5 Mar 2026 07:55:26.973,344.892
425,5 Mar 2026 09:23:15.189,5 Mar 2026 09:26:29.749,194.560
426,5 Mar 2026 20:48:50.485,5 Mar 2026 20:54:40.843,350.357
427,5 Mar 2026 22:24:24.295,5 Mar 2026 22:25:54.188,89.893
428,5 Mar 2026 22:27:06.823,5 Mar 2026 22:28:26.876,80.053
429,6 Mar 2026 07:29:25.063,6 Mar 2026 07:36:35.758,430.694
430,6 Mar 2026 09:04:40.321,6 Mar 2026 09:07:43.982,183.661
431,6 Mar 2026 09:08:44.205,6 Mar 2026 09:09:38.578,54.373
432,6 Mar 2026 20:30:17.268,6 Mar 2026 20:30:17.910,0.643
433,6 Mar 2026 20:30:30.373,6 Mar 2026 20:35:30.819,300.446
434,6 Mar 2026 22:04:49.403,6 Mar 2026 22:11:01.894,372.491
435,7 Mar 2026 07:10:07.193,7 Mar 2026 07:17:36.286,449.093
436,7 Mar 2026 08:45:57.663,7 Mar 2026 08:51:25.993,328.330
437,7 Mar 2026 20:12:10.951,7 Mar 2026 20:17:30.702,319.751
438,7 Mar 2026 21:45:38.090,7 Mar 2026 21:52:17.732,399.642
439,8 Mar 2026 06:52:10.119,8 Mar 2026 06:53:36.279,86.161
440,8 Mar 2026 06:53:40.862,8 Mar 2026 06:58:25.308,284.445
441,8 Mar 2026 08:27:16.252,8 Mar 2026 08:32:59.228,342.976
442,8 Mar 2026 19:53:40.478,8 Mar 2026 19:58:58.632,318.154
443,8 Mar 2026 19:59:12.407,8 Mar 2026 19:59:31.564,19.156
444,8 Mar 2026 19:59:37.527,8 Mar 2026 19:59:43.615,6.088
445,8 Mar 2026 21:26:38.487,8 Mar 2026 21:33:10.809,392.323
446,9 Mar 2026 06:34:53.647,9 Mar 2026 06:35:28.074,34.427
447,9 Mar 2026 06:35:38.231,9 Mar 2026 06:35:45.678,7.447
448,9 Mar 2026 06:35:53.201,9 Mar 2026 06:36:38.427,45.226
449,9 Mar 2026 06:36:46.767,9 Mar 2026 06:38:04.493,77.727
450,9 Mar 2026 08:08:34.455,9 Mar 2026 08:14:23.001,348.546
451,9 Mar 2026 19:35:52.220,9 Mar 2026 19:35:59.230,7.010
452,9 Mar 2026 19:36:09.399,9 Mar 2026 19:37:13.825,64.427
453,9 Mar 2026 19:37:23.327,9 Mar 2026 19:38:08.756,45.429
454,9 Mar 2026 19:38:17.778,9 Mar 2026 19:40:01.186,103.408
455,9 Mar 2026 21:07:47.234,9 Mar 2026 21:14:02.078,374.845
456,10 Mar 2026 07:49:53.887,10 Mar 2026 07:55:39.113,345.226
457,10 Mar 2026 09:23:27.146,10 Mar 2026 09:26:41.853,194.707
458,10 Mar 2026 20:49:03.337,10 Mar 2026 20:54:53.745,350.408
459,10 Mar 2026 22:24:37.084,10 Mar 2026 22:26:07.022,89.939
460,10 Mar 2026 22:27:19.650,10 Mar 2026 22:28:39.846,80.195
461,11 Mar 2026 07:29:36.789,11 Mar 2026 07:36:47.910,431.122
462,11 Mar 2026 09:04:52.124,11 Mar 2026 09:07:56.812,184.688
463,11 Mar 2026 09:08:56.335,11 Mar 2026 09:09:50.749,54.414
464,11 Mar 2026 20:30:29.724,11 Mar 2026 20:30:30.482,0.758
465,11 Mar 2026 20:30:42.872,11 Mar 2026 20:35:43.713,300.841
466,11 Mar 2026 22:05:02.220,11 Mar 2026 22:11:14.850,372.630
467,12 Mar 2026 07:10:18.728,12 Mar 2026 07:17:48.436,449.707
468,12 Mar 2026 08:46:09.497,12 Mar 2026 08:51:38.208,328.710
469,12 Mar 2026 20:12:23.483,12 Mar 2026 20:17:43.673,320.190
470,12 Mar 2026 21:45:50.927,12 Mar 2026 21:52:30.596,399.669
471,13 Mar 2026 06:52:22.541,13 Mar 2026 06:53:48.390,85.849
472,13 Mar 2026 06:53:52.474,13 Mar 2026 06:58:37.422,284.948
473,13 Mar 2026 08:27:28.107,13 Mar 2026 08:33:11.480,343.373
474,13 Mar 2026 19:53:53.149,13 Mar 2026 19:59:11.594,318.445
475,13 Mar 2026 19:59:25.378,13 Mar 2026 19:59:44.329,18.951
476,13 Mar 2026 19:59:50.506,13 Mar 2026 19:59:56.602,6.096
477,13 Mar 2026 21:26:51.345,13 Mar 2026 21:33:23.656,392.311
478,14 Mar 2026 06:35:05.808,14 Mar 2026 06:35:40.276,34.468
479,14 Mar 2026 06:35:50.444,14 Mar 2026 06:35:57.900,7.456
480,14 Mar 2026 06:36:03.476,14 Mar 2026 06:36:50.709,47.233
481,14 Mar 2026 06:36:59.056,14 Mar 2026 06:38:16.860,77.805
482,14 Mar 2026 08:08:46.342,14 Mar 2026 08:14:35.285,348.943
483,14 Mar 2026 19:36:05.316,14 Mar 2026 19:36:12.063,6.748
484,14 Mar 2026 19:36:22.232,14 Mar 2026 19:37:26.689,64.457
485,14 Mar 2026 19:37:36.194,14 Mar 2026 19:38:21.643,45.449
486,14 Mar 2026 19:38:30.672,14 Mar 2026 19:40:13.876,103.204
487,14 Mar 2026 21:08:00.111,14 Mar 2026 21:14:14.912,374.801
488,15 Mar 2026 07:50:05.814,15 Mar 2026 07:55:51.421,345.607
489,15 Mar 2026 09:23:39.306,15 Mar 2026 09:26:54.127,194.821
490,15 Mar 2026 20:49:16.236,15 Mar 2026 20:55:06.559,350.323
491,15 Mar 2026 22:24:49.879,15 Mar 2026 22:26:19.910,90.031
492,15 Mar 2026 22:27:32.513,15 Mar 2026 22:28:52.915,80.401
493,16 Mar 2026 07:29:48.688,16 Mar 2026 07:37:00.231,431.543
494,16 Mar 2026 09:05:04.057,16 Mar 2026 09:08:09.830,185.773
495,16 Mar 2026 09:09:08.638,16 Mar 2026 09:10:03.087,54.449
496,16 Mar 2026 20:30:42.460,16 Mar 2026 20:30:43.129,0.669
497,16 Mar 2026 20:30:55.604,16 Mar 2026 20:35:56.506,300.902
498,16 Mar 2026 22:05:15.062,16 Mar 2026 22:11:27.858,372.796
499,17 Mar 2026 07:10:30.509,17 Mar 2026 07:18:00.759,450.250
500,17 Mar 2026 08:46:21.465,17 Mar 2026 08:51:50.590,329.125
501,17 Mar 2026 20:12:36.328,17 Mar 2026 20:17:56.636,320.308
502,17 Mar 2026 21:46:03.787,17 Mar 2026 21:52:43.348,399.561
503,18 Mar 2026 06:52:35.131,18 Mar 2026 06:54:00.679,85.548
504,18 Mar 2026 06:54:04.214,18 Mar 2026 06:58:49.714,285.501
505,18 Mar 2026 08:27:40.105,18 Mar 2026 08:33:23.902,343.797
506,18 Mar 2026 19:54:06.026,18 Mar 2026 19:59:24.524,318.498
507,18 Mar 2026 19:59:38.318,18 Mar 2026 19:59:56.826,18.508
508,18 Mar 2026 20:00:03.462,18 Mar 2026 20:00:09.555,6.093
509,18 Mar 2026 21:27:04.219,18 Mar 2026 21:33:36.385,392.166
510,19 Mar 2026 06:35:18.140,19 Mar 2026 06:35:52.648,34.509
511,19 Mar 2026 06:36:02.829,19 Mar 2026 06:36:10.294,7.464
512,19 Mar 2026 06:36:13.939,19 Mar 2026 06:37:03.153,49.214
513,19 Mar 2026 06:37:11.509,19 Mar 2026 06:38:29.388,77.879
514,19 Mar 2026 06:38:40.520,19 Mar 2026 06:38:40.911,0.391
515,19 Mar 2026 08:08:58.391,19 Mar 2026 08:14:47.738,349.348
516,19 Mar 2026 19:36:18.332,19 Mar 2026 19:36:24.902,6.570
517,19 Mar 2026 19:36:35.077,19 Mar 2026 19:37:39.545,64.468
518,19 Mar 2026 19:37:49.056,19 Mar 2026 19:38:34.519,45.463
519,19 Mar 2026 19:38:43.545,19 Mar 2026 19:40:26.605,103.059
520,19 Mar 2026 21:08:12.993,19 Mar 2026 21:14:27.615,374.622
521,20 Mar 2026 07:50:17.902,20 Mar 2026 07:56:03.899,345.997
522,20 Mar 2026 09:23:51.654,20 Mar 2026 09:27:06.563,194.909
523,20 Mar 2026 20:49:29.124,20 Mar 2026 20:55:19.233,350.109
524,20 Mar 2026 22:25:02.610,20 Mar 2026 22:26:32.792,90.182
525,20 Mar 2026 22:27:45.370,20 Mar 2026 22:29:06.035,80.665
526,21 Mar 2026 07:30:00.772,21 Mar 2026 07:37:12.725,431.953
527,21 Mar 2026 09:05:16.146,21 Mar 2026 09:08:22.971,186.825
528,21 Mar 2026 09:09:21.111,21 Mar 2026 09:10:15.587,54.476
529,21 Mar 2026 20:30:55.439,21 Mar 2026 20:30:55.789,0.350
530,21 Mar 2026 20:31:08.533,21 Mar 2026 20:36:09.153,300.621
531,21 Mar 2026 22:05:27.868,21 Mar 2026 22:11:40.861,372.993
532,22 Mar 2026 07:10:43.118,22 Mar 2026 07:18:13.253,450.135
533,22 Mar 2026 08:46:33.604,22 Mar 2026 08:52:03.136,329.532
534,22 Mar 2026 20:12:49.442,22 Mar 2026 20:18:09.538,320.097
535,22 Mar 2026 21:46:16.612,22 Mar 2026 21:52:55.940,399.328
536,23 Mar 2026 06:52:47.872,23 Mar 2026 06:54:13.129,85.256
537,23 Mar 2026 06:54:16.150,23 Mar 2026 06:59:02.178,286.028
538,23 Mar 2026 08:27:52.279,23 Mar 2026 08:33:36.483,344.204
539,23 Mar 2026 19:54:19.065,23 Mar 2026 19:59:37.386,318.321
540,23 Mar 2026 19:59:51.183,23 Mar 2026 20:00:09.022,17.839
541,23 Mar 2026 20:00:16.332,23 Mar 2026 20:00:22.432,6.100
542,23 Mar 2026 21:27:17.055,23 Mar 2026 21:33:48.948,391.894
543,24 Mar 2026 06:35:30.632,24 Mar 2026 06:36:05.178,34.547
544,24 Mar 2026 06:36:15.368,24 Mar 2026 06:36:22.840,7.472
545,24 Mar 2026 06:36:24.787,24 Mar 2026 06:37:15.757,50.970
546,24 Mar 2026 06:37:24.121,24 Mar 2026 06:38:42.065,77.944
547,24 Mar 2026 06:38:53.204,24 Mar 2026 06:38:54.120,0.916
548,24 Mar 2026 08:09:10.613,24 Mar 2026 08:15:00.350,349.737
549,24 Mar 2026 19:36:31.244,24 Mar 2026 19:36:37.697,6.454
550,24 Mar 2026 19:36:47.874,24 Mar 2026 19:37:52.345,64.471
551,24 Mar 2026 19:38:01.857,24 Mar 2026 19:38:47.326,45.468
552,24 Mar 2026 19:38:56.356,24 Mar 2026 19:40:39.307,102.951
553,24 Mar 2026 21:08:25.828,24 Mar 2026 21:14:40.146,374.318
554,25 Mar 2026 07:50:30.174,25 Mar 2026 07:56:16.530,346.356
555,25 Mar 2026 09:24:04.173,25 Mar 2026 09:27:19.158,194.986
556,25 Mar 2026 20:49:41.955,25 Mar 2026 20:55:31.729,349.774
557,25 Mar 2026 22:25:15.238,25 Mar 2026 22:26:45.637,90.399
558,25 Mar 2026 22:27:58.162,25 Mar 2026 22:29:19.156,80.994
559,26 Mar 2026 07:30:13.041,26 Mar 2026 07:37:25.370,432.330
560,26 Mar 2026 09:05:28.427,26 Mar 2026 09:08:36.174,187.746
561,26 Mar 2026 09:09:33.727,26 Mar 2026 09:10:28.249,54.522
562,26 Mar 2026 20:31:21.596,26 Mar 2026 20:36:21.617,300.021
563,26 Mar 2026 22:05:40.588,26 Mar 2026 22:11:53.816,373.228
564,27 Mar 2026 07:10:55.873,27 Mar 2026 07:18:25.899,450.026
565,27 Mar 2026 08:46:45.931,27 Mar 2026 08:52:15.834,329.903
566,27 Mar 2026 20:13:02.777,27 Mar 2026 20:18:22.340,319.562
567,27 Mar 2026 21:46:29.357,27 Mar 2026 21:53:08.350,398.993
568,28 Mar 2026 06:53:00.744,28 Mar 2026 06:54:25.736,84.992
569,28 Mar 2026 06:54:28.331,28 Mar 2026 06:59:14.800,286.469
570,28 Mar 2026 08:28:04.647,28 Mar 2026 08:33:49.209,344.562
571,28 Mar 2026 19:54:32.210,28 Mar 2026 19:59:50.136,317.927
572,28 Mar 2026 20:00:03.934,28 Mar 2026 20:00:20.929,16.995
573,28 Mar 2026 20:00:29.092,28 Mar 2026 20:00:35.193,6.101
574,28 Mar 2026 21:27:29.801,28 Mar 2026 21:34:01.322,391.520
575,29 Mar 2026 06:35:43.271,29 Mar 2026 06:36:17.851,34.580
576,29 Mar 2026 06:36:28.050,29 Mar 2026 06:36:35.529,7.480
577,29 Mar 2026 06:36:36.177,29 Mar 2026 06:37:28.490,52.313
578,29 Mar 2026 06:37:36.858,29 Mar 2026 06:38:54.857,77.999
579,29 Mar 2026 06:39:06.009,29 Mar 2026 06:39:07.287,1.278
580,29 Mar 2026 08:09:23.029,29 Mar 2026 08:15:13.096,350.067
581,29 Mar 2026 19:36:43.999,29 Mar 2026 19:36:50.407,6.407
582,29 Mar 2026 19:37:00.579,29 Mar 2026 19:37:46.728,46.149
583,29 Mar 2026 19:37:49.936,29 Mar 2026 19:38:05.047,15.111
584,29 Mar 2026 19:38:14.562,29 Mar 2026 19:39:00.028,45.466
585,29 Mar 2026 19:39:09.058,29 Mar 2026 19:40:51.930,102.872
586,29 Mar 2026 21:08:38.570,29 Mar 2026 21:14:52.484,373.914
587,30 Mar 2026 07:50:42.643,30 Mar 2026 07:56:29.291,346.648
588,30 Mar 2026 09:24:16.818,30 Mar 2026 09:27:31.878,195.060
589,30 Mar 2026 20:49:54.683,30 Mar 2026 20:55:44.031,349.349
590,30 Mar 2026 22:25:27.713,30 Mar 2026 22:26:58.379,90.666
591,30 Mar 2026 22:28:10.848,30 Mar 2026 22:29:32.231,81.383
592,31 Mar 2026 07:30:25.470,31 Mar 2026 07:37:38.137,432.667
593,31 Mar 2026 09:05:40.900,31 Mar 2026 09:08:49.366,188.467
594,31 Mar 2026 09:09:46.459,31 Mar 2026 09:10:41.051,54.592
595,31 Mar 2026 20:31:34.738,31 Mar 2026 20:36:33.880,299.142
596,31 Mar 2026 22:05:53.182,31 Mar 2026 22:12:06.673,373.491
597,1 Apr 2026 07:11:08.743,1 Apr 2026 07:18:38.662,449.919
598,1 Apr 2026 08:46:58.448,1 Apr 2026 08:52:28.655,330.207
599,1 Apr 2026 20:13:16.237,1 Apr 2026 20:18:35.008,318.770
600,1 Apr 2026 21:46:41.977,1 Apr 2026 21:53:20.562,398.585
601,2 Apr 2026 06:53:13.709,2 Apr 2026 06:54:38.458,84.749
602,2 Apr 2026 06:54:40.775,2 Apr 2026 06:59:27.541,286.766
603,2 Apr 2026 08:28:17.204,2 Apr 2026 08:34:02.043,344.840
604,2 Apr 2026 19:54:45.376,2 Apr 2026 20:00:02.744,317.368
605,2 Apr 2026 20:00:16.546,2 Apr 2026 20:00:32.571,16.025
606,2 Apr 2026 20:00:41.708,2 Apr 2026 20:00:47.811,6.103
607,2 Apr 2026 21:27:42.424,2 Apr 2026 21:34:13.496,391.072
608,3 Apr 2026 06:35:56.022,3 Apr 2026 06:36:30.630,34.608
609,3 Apr 2026 06:36:40.838,3 Apr 2026 06:37:41.314,60.477
610,3 Apr 2026 06:37:49.692,3 Apr 2026 06:39:07.730,78.038
611,3 Apr 2026 06:39:18.885,3 Apr 2026 06:39:20.321,1.437
612,3 Apr 2026 08:09:35.628,3 Apr 2026 08:15:25.938,350.311
613,3 Apr 2026 19:36:56.593,3 Apr 2026 19:37:02.984,6.391
614,3 Apr 2026 19:37:13.153,3 Apr 2026 19:37:58.018,44.865
615,3 Apr 2026 19:38:05.780,3 Apr 2026 19:38:17.614,11.834
616,3 Apr 2026 19:38:27.121,3 Apr 2026 19:39:12.590,45.468
617,3 Apr 2026 19:39:21.613,3 Apr 2026 19:41:04.418,102.806
618,3 Apr 2026 21:08:51.178,3 Apr 2026 21:15:04.622,373.444
619,4 Apr 2026 07:50:55.286,4 Apr 2026 07:56:42.136,346.850
620,4 Apr 2026 09:24:29.532,4 Apr 2026 09:27:44.688,195.156
621,4 Apr 2026 20:50:07.270,4 Apr 2026 20:55:56.134,348.864
622,4 Apr 2026 22:25:40.007,4 Apr 2026 22:27:10.998,90.992
623,4 Apr 2026 22:28:23.396,4 Apr 2026 22:29:45.202,81.806
624,5 Apr 2026 07:30:38.017,5 Apr 2026 07:37:50.980,432.963
625,5 Apr 2026 09:05:53.541,5 Apr 2026 09:09:02.473,188.932
626,5 Apr 2026 09:09:59.259,5 Apr 2026 09:10:53.955,54.696
627,5 Apr 2026 20:31:47.879,5 Apr 2026 20:36:45.950,298.071
628,5 Apr 2026 22:06:05.615,5 Apr 2026 22:12:19.398,373.784
629,6 Apr 2026 07:11:21.683,6 Apr 2026 07:18:51.498,449.814
630,6 Apr 2026 08:47:11.138,6 Apr 2026 08:52:41.556,330.419
631,6 Apr 2026 20:13:29.735,6 Apr 2026 20:18:47.520,317.785
632,6 Apr 2026 21:46:54.439,6 Apr 2026 21:53:32.581,398.142
633,7 Apr 2026 06:53:26.712,7 Apr 2026 06:54:51.259,84.547
634,7 Apr 2026 06:54:53.481,7 Apr 2026 06:59:40.358,286.877
635,7 Apr 2026 08:28:29.923,7 Apr 2026 08:34:14.940,345.017
636,7 Apr 2026 19:54:58.496,7 Apr 2026 20:00:15.192,316.697
637,7 Apr 2026 20:00:28.997,7 Apr 2026 20:00:44.762,15.765
638,7 Apr 2026 20:00:54.167,7 Apr 2026 20:01:00.272,6.105
639,7 Apr 2026 21:27:54.887,7 Apr 2026 21:34:25.480,390.594
640,8 Apr 2026 06:36:08.840,8 Apr 2026 06:36:43.469,34.629
641,8 Apr 2026 06:36:53.677,8 Apr 2026 06:37:54.189,60.512
642,8 Apr 2026 06:38:02.565,8 Apr 2026 06:39:20.634,78.069
643,8 Apr 2026 06:39:31.792,8 Apr 2026 06:39:33.151,1.359
644,8 Apr 2026 08:09:48.388,8 Apr 2026 08:15:38.830,350.442
645,8 Apr 2026 19:37:09.012,8 Apr 2026 19:37:15.402,6.389
646,8 Apr 2026 19:37:25.573,8 Apr 2026 19:38:09.884,44.310
647,8 Apr 2026 19:38:21.989,8 Apr 2026 19:38:30.018,8.029
648,8 Apr 2026 19:38:39.525,8 Apr 2026 19:39:24.989,45.464
649,8 Apr 2026 19:39:34.014,8 Apr 2026 19:41:15.488,101.474
650,8 Apr 2026 19:41:16.378,8 Apr 2026 19:41:16.734,0.356
651,8 Apr 2026 21:09:03.627,8 Apr 2026 21:15:16.574,372.947
652,9 Apr 2026 07:51:08.081,9 Apr 2026 07:56:55.020,346.939
653,9 Apr 2026 09:24:42.259,9 Apr 2026 09:27:57.545,195.285
654,9 Apr 2026 20:50:19.695,9 Apr 2026 20:56:08.051,348.356
655,9 Apr 2026 22:25:52.108,9 Apr 2026 22:27:23.456,91.348
656,9 Apr 2026 22:28:35.780,9 Apr 2026 22:29:58.038,82.258
657,10 Apr 2026 07:30:50.643,10 Apr 2026 07:38:03.854,433.211
658,10 Apr 2026 09:06:06.337,10 Apr 2026 09:09:15.428,189.091
659,10 Apr 2026 09:10:12.082,10 Apr 2026 09:11:06.918,54.836
660,10 Apr 2026 20:32:00.941,10 Apr 2026 20:36:57.834,296.893
661,10 Apr 2026 22:06:17.871,10 Apr 2026 22:12:31.964,374.093
662,11 Apr 2026 07:11:34.647,11 Apr 2026 07:19:04.356,449.709
663,11 Apr 2026 08:47:23.964,11 Apr 2026 08:52:54.493,330.529
664,11 Apr 2026 20:13:43.178,11 Apr 2026 20:18:59.877,316.698
665,11 Apr 2026 21:47:06.731,11 Apr 2026 21:53:44.435,397.704
666,12 Apr 2026 06:53:39.709,12 Apr 2026 06:55:04.087,84.378
667,12 Apr 2026 06:55:06.432,12 Apr 2026 06:59:53.201,286.769
668,12 Apr 2026 08:28:42.775,12 Apr 2026 08:34:27.855,345.079
669,12 Apr 2026 19:55:11.500,12 Apr 2026 20:00:27.485,315.985
670,12 Apr 2026 20:00:41.290,12 Apr 2026 20:00:56.669,15.379
671,12 Apr 2026 20:01:06.469,12 Apr 2026 20:01:12.577,6.108
672,12 Apr 2026 21:28:07.180,12 Apr 2026 21:34:37.303,390.123
673,13 Apr 2026 06:36:21.675,13 Apr 2026 06:36:56.318,34.643
674,13 Apr 2026 06:37:06.532,13 Apr 2026 06:37:14.023,7.491
675,13 Apr 2026 06:37:14.410,13 Apr 2026 06:38:07.058,52.648
676,13 Apr 2026 06:38:15.439,13 Apr 2026 06:39:33.521,78.082
677,13 Apr 2026 06:39:44.679,13 Apr 2026 06:39:45.731,1.052
678,13 Apr 2026 08:10:01.265,13 Apr 2026 08:15:51.720,350.455
679,13 Apr 2026 19:37:21.268,13 Apr 2026 19:37:27.655,6.388
680,13 Apr 2026 19:37:37.824,13 Apr 2026 19:38:22.126,44.302
681,13 Apr 2026 19:38:35.051,13 Apr 2026 19:38:42.256,7.205
682,13 Apr 2026 19:38:51.758,13 Apr 2026 19:39:37.220,45.462
683,13 Apr 2026 19:39:46.243,13 Apr 2026 19:41:25.511,99.268
684,13 Apr 2026 19:41:28.615,13 Apr 2026 19:41:28.852,0.237
685,13 Apr 2026 21:09:15.906,13 Apr 2026 21:15:28.369,372.462
686,14 Apr 2026 07:51:20.986,14 Apr 2026 07:57:07.890,346.904
687,14 Apr 2026 09:24:55.018,14 Apr 2026 09:28:10.389,195.371
688,14 Apr 2026 20:50:31.951,14 Apr 2026 20:56:19.819,347.868
689,14 Apr 2026 22:26:04.026,14 Apr 2026 22:27:35.751,91.725
690,14 Apr 2026 22:28:47.996,14 Apr 2026 22:30:10.711,82.715
691,15 Apr 2026 07:31:03.292,15 Apr 2026 07:38:16.703,433.411
692,15 Apr 2026 09:06:19.237,15 Apr 2026 09:09:28.180,188.943
693,15 Apr 2026 09:10:24.874,15 Apr 2026 09:11:19.891,55.018
694,15 Apr 2026 20:32:13.859,15 Apr 2026 20:37:09.573,295.714
695,15 Apr 2026 22:06:29.952,15 Apr 2026 22:12:44.362,374.410
696,16 Apr 2026 07:11:47.584,16 Apr 2026 07:19:17.185,449.602
697,16 Apr 2026 08:47:36.881,16 Apr 2026 08:53:07.409,330.528
698,16 Apr 2026 20:13:56.467,16 Apr 2026 20:19:12.084,315.617
699,16 Apr 2026 21:47:18.850,16 Apr 2026 21:53:56.163,397.314
700,17 Apr 2026 06:53:52.652,17 Apr 2026 06:55:16.891,84.239
701,17 Apr 2026 06:55:19.569,17 Apr 2026 07:00:06.010,286.441
702,17 Apr 2026 08:28:55.710,17 Apr 2026 08:34:40.728,345.018
703,17 Apr 2026 19:55:24.324,17 Apr 2026 20:00:39.628,315.304
704,17 Apr 2026 20:00:53.439,17 Apr 2026 20:01:07.913,14.474
705,17 Apr 2026 20:01:18.629,17 Apr 2026 20:01:24.740,6.111
706,17 Apr 2026 21:28:19.302,17 Apr 2026 21:34:49.004,389.702
707,18 Apr 2026 06:36:34.476,18 Apr 2026 06:37:09.120,34.644
708,18 Apr 2026 06:37:19.341,18 Apr 2026 06:37:26.833,7.492
709,18 Apr 2026 06:37:28.518,18 Apr 2026 06:38:19.870,51.351
710,18 Apr 2026 06:38:28.255,18 Apr 2026 06:39:46.339,78.084
711,18 Apr 2026 06:39:57.496,18 Apr 2026 06:39:58.018,0.522
712,18 Apr 2026 08:10:14.217,18 Apr 2026 08:16:04.557,350.340
713,18 Apr 2026 19:37:33.394,18 Apr 2026 19:37:39.740,6.345
714,18 Apr 2026 19:37:49.905,18 Apr 2026 19:38:34.203,44.297
715,18 Apr 2026 19:38:47.128,18 Apr 2026 19:38:54.326,7.198
716,18 Apr 2026 19:39:03.833,18 Apr 2026 19:39:49.297,45.464
717,18 Apr 2026 19:39:59.636,18 Apr 2026 19:41:36.386,96.750
718,18 Apr 2026 19:41:40.700,18 Apr 2026 19:41:40.772,0.072
719,18 Apr 2026 21:09:28.017,18 Apr 2026 21:15:40.050,372.032
720,19 Apr 2026 07:51:33.946,19 Apr 2026 07:57:20.693,346.747
721,19 Apr 2026 09:25:07.926,19 Apr 2026 09:28:23.171,195.246
722,19 Apr 2026 20:50:44.042,19 Apr 2026 20:56:31.479,347.437
723,19 Apr 2026 22:26:15.778,19 Apr 2026 22:27:47.880,92.103
724,19 Apr 2026 22:29:00.051,19 Apr 2026 22:30:23.210,83.159
725,20 Apr 2026 07:31:15.901,20 Apr 2026 07:38:29.476,433.575
726,20 Apr 2026 09:06:32.188,20 Apr 2026 09:09:40.703,188.515
727,20 Apr 2026 09:10:37.578,20 Apr 2026 09:11:32.818,55.240
728,20 Apr 2026 20:32:26.580,20 Apr 2026 20:37:21.219,294.639
729,20 Apr 2026 22:06:41.869,20 Apr 2026 22:12:56.597,374.728
730,21 Apr 2026 07:12:00.441,21 Apr 2026 07:19:29.934,449.493
731,21 Apr 2026 08:47:49.840,21 Apr 2026 08:53:20.255,330.415
732,21 Apr 2026 20:14:09.522,21 Apr 2026 20:19:24.157,314.635
733,21 Apr 2026 21:47:30.808,21 Apr 2026 21:54:07.812,397.005
734,22 Apr 2026 06:54:05.490,22 Apr 2026 06:55:29.618,84.128
735,22 Apr 2026 06:55:32.836,22 Apr 2026 07:00:18.737,285.901
736,22 Apr 2026 08:29:08.672,22 Apr 2026 08:34:53.511,344.839
737,22 Apr 2026 19:55:36.931,22 Apr 2026 20:00:51.648,314.717
738,22 Apr 2026 20:01:05.471,22 Apr 2026 20:01:19.190,13.719
739,22 Apr 2026 20:01:30.675,22 Apr 2026 20:01:36.791,6.116
740,22 Apr 2026 21:28:31.269,22 Apr 2026 21:35:00.639,389.370
741,23 Apr 2026 06:36:47.192,23 Apr 2026 06:37:21.838,34.645
742,23 Apr 2026 06:37:32.055,23 Apr 2026 06:37:39.546,7.492
743,23 Apr 2026 06:37:43.171,23 Apr 2026 06:38:32.587,49.416
744,23 Apr 2026 06:38:40.970,23 Apr 2026 06:39:59.043,78.073
745,23 Apr 2026 08:10:27.178,23 Apr 2026 08:16:17.293,350.115
746,23 Apr 2026 19:37:45.424,23 Apr 2026 19:37:51.671,6.247
747,23 Apr 2026 19:38:01.838,23 Apr 2026 19:38:46.136,44.298
748,23 Apr 2026 19:38:59.060,23 Apr 2026 19:39:06.263,7.203
749,23 Apr 2026 19:39:15.768,23 Apr 2026 19:40:01.241,45.474
750,23 Apr 2026 19:40:31.374,23 Apr 2026 19:41:47.556,76.182
751,23 Apr 2026 21:09:39.983,23 Apr 2026 21:15:51.676,371.693
752,24 Apr 2026 07:51:46.903,24 Apr 2026 07:57:33.386,346.483
753,24 Apr 2026 09:25:20.765,24 Apr 2026 09:28:35.850,195.084
754,24 Apr 2026 20:50:55.994,24 Apr 2026 20:56:43.092,347.098
755,24 Apr 2026 22:26:27.407,24 Apr 2026 22:27:59.874,92.467
756,24 Apr 2026 22:29:11.969,24 Apr 2026 22:30:35.547,83.577
757,25 Apr 2026 07:31:28.423,25 Apr 2026 07:38:42.133,433.710
758,25 Apr 2026 09:06:45.136,25 Apr 2026 09:09:52.985,187.849
759,25 Apr 2026 09:10:50.160,25 Apr 2026 09:11:45.657,55.497
760,25 Apr 2026 20:32:39.066,25 Apr 2026 20:37:32.824,293.758
761,25 Apr 2026 22:06:53.656,25 Apr 2026 22:13:08.696,375.040
762,26 Apr 2026 07:12:13.185,26 Apr 2026 07:19:42.557,449.372
763,26 Apr 2026 08:48:02.783,26 Apr 2026 08:53:32.989,330.207
764,26 Apr 2026 20:14:22.288,26 Apr 2026 20:19:36.142,313.854
765,26 Apr 2026 21:47:42.641,26 Apr 2026 21:54:19.440,396.799
766,27 Apr 2026 06:54:18.193,27 Apr 2026 06:55:42.229,84.036
767,27 Apr 2026 06:55:46.151,27 Apr 2026 07:00:31.338,285.187
768,27 Apr 2026 08:29:21.605,27 Apr 2026 08:35:06.174,344.569
769,27 Apr 2026 19:55:49.293,27 Apr 2026 20:01:03.585,314.292
770,27 Apr 2026 20:01:17.419,27 Apr 2026 20:01:30.592,13.173
771,27 Apr 2026 20:01:42.643,27 Apr 2026 20:01:48.764,6.121
772,27 Apr 2026 21:28:43.117,27 Apr 2026 21:35:12.265,389.148
773,28 Apr 2026 06:36:59.785,28 Apr 2026 06:37:34.427,34.642
774,28 Apr 2026 06:37:44.642,28 Apr 2026 06:37:52.133,7.490
775,28 Apr 2026 06:37:58.240,28 Apr 2026 06:38:45.169,46.929
776,28 Apr 2026 06:38:53.548,28 Apr 2026 06:40:11.607,78.060
777,28 Apr 2026 08:10:40.098,28 Apr 2026 08:16:29.894,349.796
778,28 Apr 2026 19:37:57.404,28 Apr 2026 19:38:03.494,6.090
779,28 Apr 2026 19:38:13.659,28 Apr 2026 19:38:57.960,44.301
780,28 Apr 2026 19:39:10.891,28 Apr 2026 19:39:18.095,7.204
781,28 Apr 2026 19:39:27.601,28 Apr 2026 19:40:13.088,45.487
782,28 Apr 2026 19:40:43.243,28 Apr 2026 19:41:59.098,75.855
783,28 Apr 2026 21:09:51.834,28 Apr 2026 21:16:03.298,371.464
784,29 Apr 2026 07:51:59.803,29 Apr 2026 07:57:45.934,346.131
785,29 Apr 2026 09:25:33.494,29 Apr 2026 09:28:48.393,194.899
786,29 Apr 2026 20:51:07.843,29 Apr 2026 20:56:54.719,346.876
787,29 Apr 2026 22:26:38.956,29 Apr 2026 22:28:11.757,92.801
788,29 Apr 2026 22:29:23.793,29 Apr 2026 22:30:47.737,83.944
789,30 Apr 2026 07:31:40.814,30 Apr 2026 07:38:54.637,433.823
790,30 Apr 2026 09:06:58.021,30 Apr 2026 09:10:05.034,187.013
791,30 Apr 2026 09:11:02.588,30 Apr 2026 09:11:58.367,55.779
792,30 Apr 2026 20:32:51.302,30 Apr 2026 20:37:44.450,293.148
793,30 Apr 2026 22:07:05.355,30 Apr 2026 22:13:20.687,375.332
794,1 May 2026 07:12:25.777,1 May 2026 07:19:55.023,449.247
795,1 May 2026 08:48:15.647,1 May 2026 08:53:45.578,329.931
796,1 May 2026 20:14:34.734,1 May 2026 20:19:48.070,313.336
797,1 May 2026 21:47:54.385,1 May 2026 21:54:31.111,396.725
798,2 May 2026 06:54:30.739,2 May 2026 06:55:54.692,83.953
799,2 May 2026 06:55:59.437,2 May 2026 07:00:43.774,284.337
800,2 May 2026 08:29:34.450,2 May 2026 08:35:18.678,344.228
801,2 May 2026 19:56:01.410,2 May 2026 20:01:15.484,314.074
802,2 May 2026 20:01:29.330,2 May 2026 20:01:42.195,12.865
803,2 May 2026 20:01:54.580,2 May 2026 20:02:00.707,6.128
804,2 May 2026 21:28:54.881,2 May 2026 21:35:23.938,389.056
805,3 May 2026 06:37:12.216,3 May 2026 06:37:46.853,34.637
806,3 May 2026 06:37:57.072,3 May 2026 06:38:04.561,7.489
807,3 May 2026 06:38:13.525,3 May 2026 06:38:57.589,44.064
808,3 May 2026 06:39:05.969,3 May 2026 06:40:24.013,78.044
809,3 May 2026 08:10:52.915,3 May 2026 08:16:42.331,349.416
810,3 May 2026 19:38:09.386,3 May 2026 19:38:15.237,5.851
811,3 May 2026 19:38:25.403,3 May 2026 19:39:09.726,44.323
812,3 May 2026 19:39:22.658,3 May 2026 19:39:29.864,7.206
813,3 May 2026 19:39:39.372,3 May 2026 19:40:24.884,45.512
814,3 May 2026 19:40:55.056,3 May 2026 19:42:10.644,75.587
815,3 May 2026 21:10:03.610,3 May 2026 21:16:14.990,371.380
816,4 May 2026 07:52:12.593,4 May 2026 07:57:58.318,345.725
817,4 May 2026 09:25:46.082,4 May 2026 09:29:00.767,194.685
818,4 May 2026 20:51:19.628,4 May 2026 20:57:06.416,346.787
819,4 May 2026 22:26:50.490,4 May 2026 22:28:23.568,93.079
820,4 May 2026 22:29:35.559,4 May 2026 22:30:59.817,84.258
821,5 May 2026 07:31:53.031,5 May 2026 07:39:06.970,433.939
822,5 May 2026 09:07:10.790,5 May 2026 09:10:16.883,186.093
823,5 May 2026 09:11:14.847,5 May 2026 09:12:10.918,56.070
824,5 May 2026 20:33:03.296,5 May 2026 20:37:56.156,292.860
825,5 May 2026 22:07:17.014,5 May 2026 22:13:32.616,375.603
826,6 May 2026 07:12:38.207,6 May 2026 07:20:07.317,449.110
827,6 May 2026 08:48:28.385,6 May 2026 08:53:58.002,329.617
828,6 May 2026 20:14:46.852,6 May 2026 20:20:00.000,313.148
829,6 May 2026 21:48:06.091,6 May 2026 21:54:42.877,396.786
830,7 May 2026 06:54:43.118,7 May 2026 06:56:06.994,83.876
831,7 May 2026 06:56:12.556,7 May 2026 07:00:56.036,283.480
832,7 May 2026 08:29:47.157,7 May 2026 08:35:31.013,343.856
833,7 May 2026 19:56:13.310,7 May 2026 20:01:27.398,314.089
834,7 May 2026 20:01:41.255,7 May 2026 20:01:54.059,12.804
835,7 May 2026 20:02:06.533,7 May 2026 20:02:12.668,6.135
836,7 May 2026 21:29:06.614,7 May 2026 21:35:35.721,389.107
837,8 May 2026 06:37:24.485,8 May 2026 06:37:59.116,34.632
838,8 May 2026 06:38:09.329,8 May 2026 06:38:16.821,7.492
839,8 May 2026 06:38:27.514,8 May 2026 06:39:09.842,42.328
840,8 May 2026 06:39:18.218,8 May 2026 06:40:36.249,78.031
841,8 May 2026 08:11:05.587,8 May 2026 08:16:54.600,349.013
842,8 May 2026 19:38:21.424,8 May 2026 19:38:26.956,5.532
843,8 May 2026 19:38:37.128,8 May 2026 19:39:21.472,44.344
844,8 May 2026 19:39:34.410,8 May 2026 19:39:41.620,7.210
845,8 May 2026 19:39:51.139,8 May 2026 19:40:36.680,45.541
846,8 May 2026 19:41:06.881,8 May 2026 19:42:22.513,75.633
847,8 May 2026 21:10:15.366,8 May 2026 21:16:26.794,371.428
848,9 May 2026 07:52:25.229,9 May 2026 07:58:10.528,345.299
849,9 May 2026 09:25:58.511,9 May 2026 09:29:12.977,194.466
850,9 May 2026 20:51:31.407,9 May 2026 20:57:18.237,346.830
851,9 May 2026 22:27:02.056,9 May 2026 22:28:35.369,93.312
852,9 May 2026 22:29:47.322,9 May 2026 22:31:11.836,84.514
853,10 May 2026 07:32:05.070,10 May 2026 07:39:19.133,434.063
854,10 May 2026 09:07:23.407,10 May 2026 09:10:28.589,185.182
855,10 May 2026 09:11:26.936,10 May 2026 09:12:23.301,56.365
856,10 May 2026 20:33:15.084,10 May 2026 20:38:07.998,292.914
857,10 May 2026 22:07:28.689,10 May 2026 22:13:44.535,375.846
858,11 May 2026 07:12:50.473,11 May 2026 07:20:19.437,448.964
859,11 May 2026 08:48:40.964,11 May 2026 08:54:10.257,329.294
860,11 May 2026 20:14:58.677,11 May 2026 20:20:11.973,313.295
861,11 May 2026 21:48:17.814,11 May 2026 21:54:54.788,396.974
862,12 May 2026 06:54:55.340,12 May 2026 06:56:19.126,83.786
863,12 May 2026 06:56:25.079,12 May 2026 07:00:41.448,256.369
864,12 May 2026 07:00:42.971,12 May 2026 07:01:08.120,25.148
865,12 May 2026 08:29:59.698,12 May 2026 08:35:43.182,343.484
866,12 May 2026 19:56:25.030,12 May 2026 20:01:39.368,314.338
867,12 May 2026 20:01:53.245,12 May 2026 20:02:06.211,12.966
868,12 May 2026 20:02:18.551,12 May 2026 20:02:24.694,6.142
869,12 May 2026 21:29:18.370,12 May 2026 21:35:47.655,389.285
870,13 May 2026 06:37:36.587,13 May 2026 06:38:11.214,34.628
871,13 May 2026 06:38:21.423,13 May 2026 06:38:28.919,7.496
872,13 May 2026 06:38:40.332,13 May 2026 06:39:21.939,41.607
873,13 May 2026 06:39:30.316,13 May 2026 06:40:48.337,78.022
874,13 May 2026 08:11:18.090,13 May 2026 08:17:06.704,348.613
875,13 May 2026 19:38:33.565,13 May 2026 19:38:38.703,5.137
876,13 May 2026 19:38:48.879,13 May 2026 19:39:33.257,44.379
877,13 May 2026 19:39:46.206,13 May 2026 19:39:53.422,7.216
878,13 May 2026 19:40:02.946,13 May 2026 19:40:48.527,45.581
879,13 May 2026 19:41:18.750,13 May 2026 19:42:34.737,75.986
880,13 May 2026 21:10:27.152,13 May 2026 21:16:38.759,371.607
881,14 May 2026 07:52:37.682,14 May 2026 07:58:22.577,344.895
882,14 May 2026 09:26:10.776,14 May 2026 09:29:25.025,194.248
883,14 May 2026 20:51:43.227,14 May 2026 20:57:30.226,346.998
884,14 May 2026 22:27:13.712,14 May 2026 22:28:47.199,93.487
885,14 May 2026 22:29:59.128,14 May 2026 22:31:23.838,84.710
886,15 May 2026 07:32:16.918,15 May 2026 07:39:31.134,434.216
887,15 May 2026 09:07:35.844,15 May 2026 09:10:40.208,184.365
888,15 May 2026 09:11:38.864,15 May 2026 09:12:35.520,56.656
889,15 May 2026 20:33:26.712,15 May 2026 20:38:20.008,293.297
890,15 May 2026 22:07:40.433,15 May 2026 22:13:56.489,376.055
891,16 May 2026 07:13:02.733,16 May 2026 07:20:31.396,448.664
892,16 May 2026 08:48:53.355,16 May 2026 08:54:22.355,329.000
893,16 May 2026 20:15:10.273,16 May 2026 20:20:24.030,313.757
894,16 May 2026 21:48:29.601,16 May 2026 21:55:06.878,397.277
895,17 May 2026 06:55:07.426,17 May 2026 06:56:31.101,83.675
896,17 May 2026 06:56:37.545,17 May 2026 07:00:52.009,254.464
897,17 May 2026 07:00:54.975,17 May 2026 07:01:20.038,25.063
898,17 May 2026 08:30:12.051,17 May 2026 08:35:55.203,343.152
899,17 May 2026 19:56:36.628,17 May 2026 20:01:51.433,314.805
900,17 May 2026 20:02:05.329,17 May 2026 20:02:18.664,13.335
901,17 May 2026 20:02:30.672,17 May 2026 20:02:36.822,6.150
902,17 May 2026 21:29:30.195,17 May 2026 21:35:59.766,389.571
903,18 May 2026 06:37:48.528,18 May 2026 06:38:23.156,34.628
904,18 May 2026 06:38:33.367,18 May 2026 06:38:40.868,7.501
905,18 May 2026 06:38:52.910,18 May 2026 06:39:33.891,40.981
906,18 May 2026 06:39:42.269,18 May 2026 06:41:00.294,78.025
907,18 May 2026 08:11:30.394,18 May 2026 08:17:18.662,348.268
908,18 May 2026 19:38:45.844,18 May 2026 19:38:50.522,4.679
909,18 May 2026 19:39:00.708,18 May 2026 19:39:45.125,44.417
910,18 May 2026 19:39:58.086,18 May 2026 19:40:05.308,7.223
911,18 May 2026 19:40:14.844,18 May 2026 19:41:00.467,45.623
912,18 May 2026 19:41:30.716,18 May 2026 19:42:47.117,76.401
913,18 May 2026 21:10:39.015,18 May 2026 21:16:50.907,371.892
914,19 May 2026 07:52:49.948,19 May 2026 07:58:34.487,344.539
915,19 May 2026 09:26:22.889,19 May 2026 09:29:36.931,194.042
916,19 May 2026 20:51:55.136,19 May 2026 20:57:42.403,347.267
917,19 May 2026 22:27:25.509,19 May 2026 22:28:59.110,93.601
918,19 May 2026 22:30:11.028,19 May 2026 22:31:35.878,84.850
919,20 May 2026 07:32:28.596,20 May 2026 07:39:43.004,434.408
920,20 May 2026 09:07:48.087,20 May 2026 09:10:51.818,183.731
921,20 May 2026 09:11:50.671,20 May 2026 09:12:47.590,56.919
922,20 May 2026 20:33:38.241,20 May 2026 20:38:32.215,293.973
923,20 May 2026 22:07:52.290,20 May 2026 22:14:08.527,376.237
924,21 May 2026 07:13:14.578,21 May 2026 07:20:43.227,448.649
925,21 May 2026 08:49:05.559,21 May 2026 08:54:34.320,328.761
926,21 May 2026 20:15:21.704,21 May 2026 20:20:36.215,314.511
927,21 May 2026 21:48:41.501,21 May 2026 21:55:19.159,397.658
928,22 May 2026 06:55:19.410,22 May 2026 06:56:42.939,83.530
929,22 May 2026 06:56:51.467,22 May 2026 07:01:02.973,251.506
930,22 May 2026 07:01:06.890,22 May 2026 07:01:31.769,24.879
931,22 May 2026 08:30:24.212,22 May 2026 08:36:07.103,342.890
932,22 May 2026 19:56:48.179,22 May 2026 20:02:03.636,315.457
933,22 May 2026 20:02:17.553,22 May 2026 20:02:31.392,13.839
934,22 May 2026 20:02:42.933,22 May 2026 20:02:49.091,6.158
935,22 May 2026 21:29:42.136,22 May 2026 21:36:12.083,389.946
936,23 May 2026 06:38:00.352,23 May 2026 06:38:34.987,34.634
937,23 May 2026 06:38:45.201,23 May 2026 06:38:52.702,7.502
938,23 May 2026 06:39:05.238,23 May 2026 06:39:45.739,40.501
939,23 May 2026 06:39:54.121,23 May 2026 06:41:12.160,78.039
940,23 May 2026 08:11:42.517,23 May 2026 08:17:30.514,347.997
941,23 May 2026 19:38:58.290,23 May 2026 19:39:02.464,4.174
942,23 May 2026 19:39:12.659,23 May 2026 19:39:57.114,44.456
943,23 May 2026 19:40:10.093,23 May 2026 19:40:17.323,7.230
944,23 May 2026 19:40:26.866,23 May 2026 19:41:12.537,45.672
945,23 May 2026 19:41:36.855,23 May 2026 19:42:59.800,82.945
946,23 May 2026 21:10:51.002,23 May 2026 21:17:03.260,372.258
947,24 May 2026 07:53:02.027,24 May 2026 07:58:46.301,344.274
948,24 May 2026 09:26:34.883,24 May 2026 09:29:48.740,193.857
949,24 May 2026 20:52:07.176,24 May 2026 20:57:54.785,347.609
950,24 May 2026 22:27:37.473,24 May 2026 22:29:11.138,93.665
951,24 May 2026 22:30:23.059,24 May 2026 22:31:48.004,84.946
952,25 May 2026 07:32:40.146,25 May 2026 07:39:54.783,434.638
953,25 May 2026 09:08:00.146,25 May 2026 09:11:03.493,183.347
954,25 May 2026 09:12:02.396,25 May 2026 09:12:59.548,57.153
955,25 May 2026 20:33:49.757,25 May 2026 20:38:44.625,294.867
956,25 May 2026 22:08:04.300,25 May 2026 22:14:20.687,376.387
957,26 May 2026 07:13:26.485,26 May 2026 07:20:54.971,448.486
958,26 May 2026 08:49:17.582,26 May 2026 08:54:46.194,328.612
959,26 May 2026 20:15:33.075,26 May 2026 20:20:48.550,315.475
960,26 May 2026 21:48:53.550,26 May 2026 21:55:31.641,398.091
961,27 May 2026 06:55:31.338,27 May 2026 06:56:54.692,83.354
962,27 May 2026 06:57:03.817,27 May 2026 07:01:14.556,250.738
963,27 May 2026 07:01:18.761,27 May 2026 07:01:43.178,24.417
964,27 May 2026 08:30:36.197,27 May 2026 08:36:18.927,342.730
965,27 May 2026 19:56:59.757,27 May 2026 20:02:15.992,316.234
966,27 May 2026 20:02:29.931,27 May 2026 20:02:44.346,14.416
967,27 May 2026 20:02:55.345,27 May 2026 20:03:01.510,6.165
968,27 May 2026 21:29:54.227,27 May 2026 21:36:24.587,390.360
969,28 May 2026 06:38:12.095,28 May 2026 06:38:46.747,34.652
970,28 May 2026 06:38:56.959,28 May 2026 06:39:04.469,7.509
971,28 May 2026 06:39:17.322,28 May 2026 06:39:57.527,40.206
972,28 May 2026 06:40:05.911,28 May 2026 06:41:23.982,78.071
973,28 May 2026 08:11:54.465,28 May 2026 08:17:42.303,347.838
974,28 May 2026 19:39:10.909,28 May 2026 19:39:14.552,3.643
975,28 May 2026 19:39:24.758,28 May 2026 19:40:09.261,44.503
976,28 May 2026 19:40:22.249,28 May 2026 19:40:29.487,7.239
977,28 May 2026 19:40:39.042,28 May 2026 19:41:24.765,45.723
978,28 May 2026 19:41:34.248,28 May 2026 19:43:13.018,98.771
979,28 May 2026 21:11:03.141,28 May 2026 21:17:15.803,372.662
980,29 May 2026 07:53:13.945,29 May 2026 07:58:58.059,344.114
981,29 May 2026 09:26:46.791,29 May 2026 09:30:00.488,193.697
982,29 May 2026 20:52:19.371,29 May 2026 20:58:07.356,347.984
983,29 May 2026 22:27:49.636,29 May 2026 22:29:23.321,93.685
984,29 May 2026 22:30:35.243,29 May 2026 22:32:00.252,85.008
985,30 May 2026 07:32:51.593,30 May 2026 07:40:06.518,434.925
986,30 May 2026 09:08:12.047,30 May 2026 09:11:15.299,183.252
987,30 May 2026 09:12:14.082,30 May 2026 09:13:11.435,57.354
