FINCH_access/sat_access_analysis_MP/90deg_access_report.txt

                                                                               9 Nov 2023 21:37:12
Place-BahenGS-Sensor-Sensor2-To-Satellite-Finch:  Access Summary Report


Sensor2-To-Finch
----------------
                  Access        Start Time (UTCG)           Stop Time (UTCG)        Duration (sec)
                  ------    ------------------------    ------------------------    --------------
                       1     1 Jan 2026 03:21:52.413     1 Jan 2026 03:22:25.184            32.770
                       2     1 Jan 2026 03:22:34.428     1 Jan 2026 03:22:53.608            19.180
                       3     1 Jan 2026 03:23:03.451     1 Jan 2026 03:23:35.022            31.570
                       4     1 Jan 2026 04:54:31.194     1 Jan 2026 05:00:11.383           340.189
                       5     1 Jan 2026 06:29:16.768     1 Jan 2026 06:30:58.157           101.389
                       6     1 Jan 2026 16:23:06.708     1 Jan 2026 16:23:39.496            32.788
                       7     1 Jan 2026 16:23:48.784     1 Jan 2026 16:23:55.635             6.851
                       8     1 Jan 2026 17:53:32.583     1 Jan 2026 17:59:25.781           353.198
                       9     1 Jan 2026 19:30:01.532     1 Jan 2026 19:30:27.152            25.620
                      10     1 Jan 2026 19:31:47.425     1 Jan 2026 19:32:01.053            13.629
                      11     2 Jan 2026 04:35:48.795     2 Jan 2026 04:41:23.597           334.802
                      12     2 Jan 2026 06:09:27.676     2 Jan 2026 06:12:27.211           179.534
                      13     2 Jan 2026 06:13:50.388     2 Jan 2026 06:14:00.620            10.232
                      14     2 Jan 2026 17:34:52.381     2 Jan 2026 17:40:16.422           324.040
                      15     2 Jan 2026 19:09:53.361     2 Jan 2026 19:11:51.689           118.328
                      16     2 Jan 2026 19:12:57.519     2 Jan 2026 19:15:12.193           134.674
                      17     3 Jan 2026 04:15:45.493     3 Jan 2026 04:22:28.187           402.694
                      18     3 Jan 2026 05:50:46.057     3 Jan 2026 05:55:58.238           312.181
                      19     3 Jan 2026 17:16:29.637     3 Jan 2026 17:21:20.766           291.129
                      20     3 Jan 2026 18:50:33.281     3 Jan 2026 18:57:09.040           395.760
                      21     4 Jan 2026 03:56:29.438     4 Jan 2026 04:03:23.187           413.749
                      22     4 Jan 2026 05:32:05.412     4 Jan 2026 05:37:37.128           331.716
                      23     4 Jan 2026 16:58:17.054     4 Jan 2026 16:58:20.232             3.179
                      24     4 Jan 2026 16:58:35.862     4 Jan 2026 17:03:12.352           276.490
                      25     4 Jan 2026 18:31:28.576     4 Jan 2026 18:37:57.886           389.309
                      26     5 Jan 2026 03:38:46.968     5 Jan 2026 03:38:53.170             6.202
                      27     5 Jan 2026 03:39:31.766     5 Jan 2026 03:43:47.540           255.774
                      28     5 Jan 2026 05:13:25.004     5 Jan 2026 05:19:04.979           339.975
                      29     5 Jan 2026 16:39:58.041     5 Jan 2026 16:40:53.507            55.465
                      30     5 Jan 2026 16:41:02.486     5 Jan 2026 16:45:09.172           246.686
                      31     5 Jan 2026 18:12:33.380     5 Jan 2026 18:18:48.828           375.448
                      32     6 Jan 2026 03:22:05.710     6 Jan 2026 03:22:38.407            32.697
                      33     6 Jan 2026 03:22:47.632     6 Jan 2026 03:23:06.775            19.143
                      34     6 Jan 2026 03:23:16.600     6 Jan 2026 03:23:50.651            34.052
                      35     6 Jan 2026 04:54:44.349     6 Jan 2026 05:00:24.584           340.235
                      36     6 Jan 2026 06:29:33.615     6 Jan 2026 06:31:08.011            94.396
                      37     6 Jan 2026 16:23:07.279     6 Jan 2026 16:23:09.544             2.265
                      38     6 Jan 2026 16:23:19.946     6 Jan 2026 16:23:52.668            32.721
                      39     6 Jan 2026 16:24:01.929     6 Jan 2026 16:24:08.774             6.845
                      40     6 Jan 2026 17:53:45.780     6 Jan 2026 17:59:39.273           353.493
                      41     6 Jan 2026 19:30:16.918     6 Jan 2026 19:30:40.269            23.351
                      42     6 Jan 2026 19:32:00.712     6 Jan 2026 19:32:11.665            10.954
                      43     7 Jan 2026 04:36:02.838     7 Jan 2026 04:41:36.882           334.045
                      44     7 Jan 2026 06:09:40.855     7 Jan 2026 06:12:40.596           179.741
                      45     7 Jan 2026 06:14:03.952     7 Jan 2026 06:14:13.149             9.197
                      46     7 Jan 2026 17:35:05.492     7 Jan 2026 17:40:29.924           324.432
                      47     7 Jan 2026 19:10:07.131     7 Jan 2026 19:12:04.766           117.635
                      48     7 Jan 2026 19:13:10.768     7 Jan 2026 19:15:24.493           133.725
                      49     8 Jan 2026 04:15:59.705     8 Jan 2026 04:22:41.569           401.864
                      50     8 Jan 2026 05:50:59.219     8 Jan 2026 05:56:11.079           311.861
                      51     8 Jan 2026 17:16:42.441     8 Jan 2026 17:21:33.576           291.135
                      52     8 Jan 2026 18:50:46.796     8 Jan 2026 18:57:23.040           396.244
                      53     9 Jan 2026 03:56:42.064     9 Jan 2026 04:03:36.703           414.639
                      54     9 Jan 2026 05:32:18.568     9 Jan 2026 05:37:50.133           331.565
                      55     9 Jan 2026 16:58:30.136     9 Jan 2026 16:58:34.025             3.889
                      56     9 Jan 2026 16:58:48.987     9 Jan 2026 17:03:25.100           276.113
                      57     9 Jan 2026 18:31:41.958     9 Jan 2026 18:38:11.372           389.414
                      58    10 Jan 2026 03:38:59.263    10 Jan 2026 03:39:06.823             7.559
                      59    10 Jan 2026 03:39:45.290    10 Jan 2026 03:44:02.112           256.822
                      60    10 Jan 2026 05:13:38.167    10 Jan 2026 05:19:18.094           339.927
                      61    10 Jan 2026 16:40:10.560    10 Jan 2026 16:41:06.976            56.416
                      62    10 Jan 2026 16:41:15.936    10 Jan 2026 16:45:21.859           245.923
                      63    10 Jan 2026 18:12:46.665    10 Jan 2026 18:19:02.333           375.668
                      64    11 Jan 2026 03:22:19.007    11 Jan 2026 03:22:51.631            32.624
                      65    11 Jan 2026 03:23:00.838    11 Jan 2026 03:23:19.938            19.100
                      66    11 Jan 2026 03:23:29.743    11 Jan 2026 03:24:06.163            36.420
                      67    11 Jan 2026 04:54:57.507    11 Jan 2026 05:00:37.784           340.277
                      68    11 Jan 2026 06:29:50.757    11 Jan 2026 06:31:17.567            86.810
                      69    11 Jan 2026 16:23:20.550    11 Jan 2026 16:23:22.813             2.263
                      70    11 Jan 2026 16:23:33.187    11 Jan 2026 16:24:05.840            32.653
                      71    11 Jan 2026 16:24:15.070    11 Jan 2026 16:24:21.897             6.827
                      72    11 Jan 2026 17:53:58.980    11 Jan 2026 17:59:52.763           353.783
                      73    11 Jan 2026 19:30:32.414    11 Jan 2026 19:30:53.387            20.973
                      74    11 Jan 2026 19:32:13.996    11 Jan 2026 19:32:22.170             8.174
                      75    12 Jan 2026 04:36:16.889    12 Jan 2026 04:41:50.167           333.278
                      76    12 Jan 2026 06:09:54.033    12 Jan 2026 06:12:53.985           179.952
                      77    12 Jan 2026 06:14:17.521    12 Jan 2026 06:14:25.671             8.150
                      78    12 Jan 2026 17:35:18.602    12 Jan 2026 17:40:43.427           324.825
                      79    12 Jan 2026 19:10:20.908    12 Jan 2026 19:12:17.847           116.940
                      80    12 Jan 2026 19:13:24.021    12 Jan 2026 19:15:36.788           132.766
                      81    13 Jan 2026 04:16:13.922    13 Jan 2026 04:22:54.951           401.030
                      82    13 Jan 2026 05:51:12.387    13 Jan 2026 05:56:23.925           311.538
                      83    13 Jan 2026 17:16:55.251    13 Jan 2026 17:21:46.390           291.139
                      84    13 Jan 2026 18:51:00.314    13 Jan 2026 18:57:37.041           396.726
                      85    14 Jan 2026 03:56:54.694    14 Jan 2026 04:03:50.220           415.526
                      86    14 Jan 2026 05:32:31.726    14 Jan 2026 05:38:03.132           331.406
                      87    14 Jan 2026 16:58:43.223    14 Jan 2026 16:58:47.822             4.600
                      88    14 Jan 2026 16:59:02.114    14 Jan 2026 17:03:37.852           275.738
                      89    14 Jan 2026 18:31:55.343    14 Jan 2026 18:38:24.860           389.518
                      90    15 Jan 2026 03:39:11.565    15 Jan 2026 03:39:20.476             8.911
                      91    15 Jan 2026 03:39:58.809    15 Jan 2026 03:44:16.661           257.851
                      92    15 Jan 2026 05:13:51.336    15 Jan 2026 05:19:31.206           339.870
                      93    15 Jan 2026 16:40:23.086    15 Jan 2026 16:41:20.449            57.364
                      94    15 Jan 2026 16:41:29.243    15 Jan 2026 16:45:34.548           245.305
                      95    15 Jan 2026 18:12:59.953    15 Jan 2026 18:19:15.834           375.882
                      96    16 Jan 2026 03:22:23.068    16 Jan 2026 03:22:24.252             1.183
                      97    16 Jan 2026 03:22:32.300    16 Jan 2026 03:23:04.856            32.556
                      98    16 Jan 2026 03:23:14.045    16 Jan 2026 03:23:33.103            19.058
                      99    16 Jan 2026 03:23:42.890    16 Jan 2026 03:24:21.566            38.677
                     100    16 Jan 2026 04:55:10.666    16 Jan 2026 05:00:50.987           340.321
                     101    16 Jan 2026 06:30:08.277    16 Jan 2026 06:31:26.747            78.470
                     102    16 Jan 2026 16:23:33.825    16 Jan 2026 16:23:36.081             2.256
                     103    16 Jan 2026 16:23:46.429    16 Jan 2026 16:24:19.011            32.582
                     104    16 Jan 2026 16:24:28.215    16 Jan 2026 16:24:35.083             6.868
                     105    16 Jan 2026 17:54:12.183    16 Jan 2026 18:00:06.256           354.073
                     106    16 Jan 2026 19:30:48.034    16 Jan 2026 19:31:06.508            18.474
                     107    16 Jan 2026 19:32:27.287    16 Jan 2026 19:32:32.549             5.262
                     108    17 Jan 2026 04:36:30.730    17 Jan 2026 04:42:03.454           332.724
                     109    17 Jan 2026 06:10:07.215    17 Jan 2026 06:13:07.370           180.155
                     110    17 Jan 2026 06:14:31.088    17 Jan 2026 06:14:38.189             7.101
                     111    17 Jan 2026 17:35:31.716    17 Jan 2026 17:40:56.933           325.217
                     112    17 Jan 2026 19:10:34.692    17 Jan 2026 19:12:30.930           116.238
                     113    17 Jan 2026 19:13:37.276    17 Jan 2026 19:15:49.077           131.801
                     114    18 Jan 2026 04:16:28.131    18 Jan 2026 04:23:08.333           400.202
                     115    18 Jan 2026 05:51:25.556    18 Jan 2026 05:56:36.766           311.210
                     116    18 Jan 2026 17:17:08.063    18 Jan 2026 17:21:59.206           291.143
                     117    18 Jan 2026 18:51:13.836    18 Jan 2026 18:57:51.042           397.206
                     118    19 Jan 2026 03:57:07.327    19 Jan 2026 04:04:03.734           416.407
                     119    19 Jan 2026 05:32:44.880    19 Jan 2026 05:38:16.134           331.255
                     120    19 Jan 2026 16:58:56.307    19 Jan 2026 16:59:01.620             5.312
                     121    19 Jan 2026 16:59:15.246    19 Jan 2026 17:03:50.606           275.360
                     122    19 Jan 2026 18:32:08.729    19 Jan 2026 18:38:38.350           389.621
                     123    20 Jan 2026 03:39:23.873    20 Jan 2026 03:39:34.129            10.256
                     124    20 Jan 2026 03:40:12.335    20 Jan 2026 03:44:31.186           258.851
                     125    20 Jan 2026 05:14:04.501    20 Jan 2026 05:19:44.317           339.815
                     126    20 Jan 2026 16:40:35.616    20 Jan 2026 16:41:33.922            58.306
                     127    20 Jan 2026 16:41:41.635    20 Jan 2026 16:45:47.237           245.602
                     128    20 Jan 2026 18:13:13.241    20 Jan 2026 18:19:29.338           376.097
                     129    21 Jan 2026 03:22:34.042    21 Jan 2026 03:22:37.567             3.526
                     130    21 Jan 2026 03:22:45.598    21 Jan 2026 03:23:18.078            32.480
                     131    21 Jan 2026 03:23:27.248    21 Jan 2026 03:23:46.269            19.021
                     132    21 Jan 2026 03:23:56.032    21 Jan 2026 03:24:36.867            40.835
                     133    21 Jan 2026 04:55:23.822    21 Jan 2026 05:01:04.185           340.363
                     134    21 Jan 2026 06:30:26.306    21 Jan 2026 06:31:35.421            69.115
                     135    21 Jan 2026 16:23:47.099    21 Jan 2026 16:23:49.351             2.253
                     136    21 Jan 2026 16:23:59.673    21 Jan 2026 16:24:32.184            32.511
                     137    21 Jan 2026 16:24:41.361    21 Jan 2026 16:24:48.886             7.525
                     138    21 Jan 2026 17:54:25.385    21 Jan 2026 18:00:19.747           354.362
                     139    21 Jan 2026 19:31:03.796    21 Jan 2026 19:31:19.629            15.832
                     140    21 Jan 2026 19:32:40.574    21 Jan 2026 19:32:42.777             2.203
                     141    22 Jan 2026 04:36:43.880    22 Jan 2026 04:42:16.736           332.856
                     142    22 Jan 2026 06:10:20.391    22 Jan 2026 06:13:20.752           180.361
                     143    22 Jan 2026 06:14:44.657    22 Jan 2026 06:14:50.700             6.043
                     144    22 Jan 2026 17:35:44.829    22 Jan 2026 17:41:10.436           325.607
                     145    22 Jan 2026 19:10:48.483    22 Jan 2026 19:12:44.013           115.529
                     146    22 Jan 2026 19:13:50.531    22 Jan 2026 19:16:01.359           130.828
                     147    23 Jan 2026 04:16:42.342    23 Jan 2026 04:23:21.712           399.370
                     148    23 Jan 2026 05:51:38.720    23 Jan 2026 05:56:49.600           310.880
                     149    23 Jan 2026 17:17:20.876    23 Jan 2026 17:22:12.015           291.139
                     150    23 Jan 2026 18:51:27.358    23 Jan 2026 18:58:05.044           397.686
                     151    24 Jan 2026 03:57:19.961    24 Jan 2026 04:04:17.245           417.284
                     152    24 Jan 2026 05:32:58.038    24 Jan 2026 05:38:29.134           331.096
                     153    24 Jan 2026 16:59:09.394    24 Jan 2026 16:59:15.418             6.024
                     154    24 Jan 2026 16:59:28.374    24 Jan 2026 17:04:03.363           274.989
                     155    24 Jan 2026 18:32:22.115    24 Jan 2026 18:38:51.834           389.720
                     156    25 Jan 2026 03:39:36.185    25 Jan 2026 03:39:47.781            11.597
                     157    25 Jan 2026 03:40:25.855    25 Jan 2026 03:44:45.688           259.832
                     158    25 Jan 2026 05:14:17.667    25 Jan 2026 05:19:57.422           339.754
                     159    25 Jan 2026 16:40:48.153    25 Jan 2026 16:41:47.391            59.238
                     160    25 Jan 2026 16:41:53.237    25 Jan 2026 16:45:59.930           246.692
                     161    25 Jan 2026 18:13:26.530    25 Jan 2026 18:19:42.837           376.308
                     162    26 Jan 2026 03:22:47.369    26 Jan 2026 03:22:50.881             3.512
                     163    26 Jan 2026 03:22:58.895    26 Jan 2026 03:23:31.300            32.405
                     164    26 Jan 2026 03:23:40.450    26 Jan 2026 03:23:59.428            18.978
                     165    26 Jan 2026 03:24:09.178    26 Jan 2026 03:24:51.064            41.886
                     166    26 Jan 2026 04:55:36.979    26 Jan 2026 05:01:17.383           340.404
                     167    26 Jan 2026 06:30:45.098    26 Jan 2026 06:31:43.326            58.227
                     168    26 Jan 2026 16:24:00.369    26 Jan 2026 16:24:02.626             2.258
                     169    26 Jan 2026 16:24:12.915    26 Jan 2026 16:24:45.358            32.443
                     170    26 Jan 2026 16:24:54.505    26 Jan 2026 16:25:02.681             8.176
                     171    26 Jan 2026 16:25:37.116    26 Jan 2026 16:25:39.187             2.071
                     172    26 Jan 2026 17:54:38.589    26 Jan 2026 18:00:33.236           354.647
                     173    26 Jan 2026 19:31:19.722    26 Jan 2026 19:31:32.745            13.024
                     174    27 Jan 2026 04:36:57.027    27 Jan 2026 04:42:30.021           332.995
                     175    27 Jan 2026 06:10:33.570    27 Jan 2026 06:13:34.138           180.568
                     176    27 Jan 2026 06:14:58.223    27 Jan 2026 06:15:03.204             4.981
                     177    27 Jan 2026 17:35:57.945    27 Jan 2026 17:41:23.945           326.000
                     178    27 Jan 2026 19:11:02.276    27 Jan 2026 19:12:57.096           114.820
                     179    27 Jan 2026 19:14:03.782    27 Jan 2026 19:16:13.639           129.857
                     180    28 Jan 2026 04:16:56.548    28 Jan 2026 04:23:35.092           398.544
                     181    28 Jan 2026 05:51:51.887    28 Jan 2026 05:57:02.436           310.549
                     182    28 Jan 2026 17:17:33.693    28 Jan 2026 17:22:24.833           291.141
                     183    28 Jan 2026 18:51:40.884    28 Jan 2026 18:58:19.050           398.166
                     184    29 Jan 2026 03:57:32.600    29 Jan 2026 04:04:30.757           418.157
                     185    29 Jan 2026 05:33:11.192    29 Jan 2026 05:38:42.133           330.941
                     186    29 Jan 2026 16:59:22.483    29 Jan 2026 16:59:29.216             6.733
                     187    29 Jan 2026 16:59:41.508    29 Jan 2026 17:04:16.120           274.612
                     188    29 Jan 2026 18:32:35.504    29 Jan 2026 18:39:05.323           389.819
                     189    30 Jan 2026 03:39:48.504    30 Jan 2026 03:40:01.437            12.934
                     190    30 Jan 2026 03:40:39.376    30 Jan 2026 03:45:00.171           260.795
                     191    30 Jan 2026 05:14:30.836    30 Jan 2026 05:20:10.531           339.695
                     192    30 Jan 2026 16:41:00.697    30 Jan 2026 16:42:00.866            60.169
                     193    30 Jan 2026 16:42:04.992    30 Jan 2026 16:46:12.623           247.631
                     194    30 Jan 2026 18:13:39.821    30 Jan 2026 18:19:56.342           376.521
                     195    31 Jan 2026 03:23:00.692    31 Jan 2026 03:23:04.196             3.505
                     196    31 Jan 2026 03:23:12.195    31 Jan 2026 03:23:44.524            32.329
                     197    31 Jan 2026 03:23:53.651    31 Jan 2026 03:24:12.597            18.946
                     198    31 Jan 2026 03:24:22.324    31 Jan 2026 03:25:04.133            41.809
                     199    31 Jan 2026 04:55:50.135    31 Jan 2026 05:01:30.582           340.447
                     200    31 Jan 2026 06:31:05.206    31 Jan 2026 06:31:49.928            44.722
                     201    31 Jan 2026 16:24:13.649    31 Jan 2026 16:24:15.897             2.248
                     202    31 Jan 2026 16:24:26.159    31 Jan 2026 16:24:58.530            32.371
                     203    31 Jan 2026 16:25:07.651    31 Jan 2026 16:25:15.863             8.212
                     204    31 Jan 2026 16:25:50.160    31 Jan 2026 16:25:55.481             5.321
                     205    31 Jan 2026 17:54:51.795    31 Jan 2026 18:00:46.732           354.936
                     206    31 Jan 2026 19:31:35.856    31 Jan 2026 19:31:45.868            10.011
                     207     1 Feb 2026 04:37:10.179     1 Feb 2026 04:42:43.305           333.126
                     208     1 Feb 2026 06:10:46.755     1 Feb 2026 06:13:47.523           180.768
                     209     1 Feb 2026 06:15:11.787     1 Feb 2026 06:15:15.708             3.921
                     210     1 Feb 2026 17:36:11.062     1 Feb 2026 17:41:37.447           326.385
                     211     1 Feb 2026 19:11:16.071     1 Feb 2026 19:13:10.183           114.112
                     212     1 Feb 2026 19:14:17.041     1 Feb 2026 19:16:25.910           128.869
                     213     2 Feb 2026 04:17:10.756     2 Feb 2026 04:23:48.469           397.713
                     214     2 Feb 2026 05:52:05.058     2 Feb 2026 05:57:15.270           310.211
                     215     2 Feb 2026 17:17:46.507     2 Feb 2026 17:22:37.648           291.141
                     216     2 Feb 2026 18:51:54.412     2 Feb 2026 18:58:33.061           398.649
                     217     3 Feb 2026 03:57:45.239     3 Feb 2026 04:04:44.264           419.025
                     218     3 Feb 2026 05:33:24.352     3 Feb 2026 05:38:55.131           330.779
                     219     3 Feb 2026 16:59:35.570     3 Feb 2026 16:59:43.019             7.449
                     220     3 Feb 2026 16:59:54.639     3 Feb 2026 17:04:28.872           274.233
                     221     3 Feb 2026 18:32:48.894     3 Feb 2026 18:39:18.807           389.913
                     222     4 Feb 2026 03:40:00.827     4 Feb 2026 03:40:15.086            14.258
                     223     4 Feb 2026 03:40:52.899     4 Feb 2026 03:45:14.632           261.733
                     224     4 Feb 2026 05:14:44.000     4 Feb 2026 05:20:23.638           339.638
                     225     4 Feb 2026 16:41:13.245     4 Feb 2026 16:42:14.340            61.094
                     226     4 Feb 2026 16:42:16.809     4 Feb 2026 16:46:25.317           248.508
                     227     4 Feb 2026 18:13:53.112     4 Feb 2026 18:20:09.843           376.730
                     228     5 Feb 2026 03:23:14.011     5 Feb 2026 03:23:17.513             3.502
                     229     5 Feb 2026 03:23:25.488     5 Feb 2026 03:23:57.747            32.259
                     230     5 Feb 2026 03:24:06.856     5 Feb 2026 03:24:25.759            18.903
                     231     5 Feb 2026 03:24:35.468     5 Feb 2026 03:25:17.199            41.731
                     232     5 Feb 2026 04:56:03.293     5 Feb 2026 05:01:43.778           340.485
                     233     5 Feb 2026 06:31:28.602     5 Feb 2026 06:31:53.235            24.633
                     234     5 Feb 2026 16:24:26.923     5 Feb 2026 16:24:29.171             2.248
                     235     5 Feb 2026 16:24:39.403     5 Feb 2026 16:25:11.708            32.305
                     236     5 Feb 2026 16:25:20.798     5 Feb 2026 16:25:28.995             8.198
                     237     5 Feb 2026 16:26:03.205     5 Feb 2026 16:26:11.623             8.419
                     238     5 Feb 2026 17:55:05.001     5 Feb 2026 18:01:00.222           355.221
                     239     5 Feb 2026 19:31:52.240     5 Feb 2026 19:31:58.992             6.752
                     240     6 Feb 2026 04:37:23.328     6 Feb 2026 04:42:56.588           333.259
                     241     6 Feb 2026 06:10:59.934     6 Feb 2026 06:14:00.904           180.970
                     242     6 Feb 2026 06:15:25.353     6 Feb 2026 06:15:28.199             2.846
                     243     6 Feb 2026 17:36:24.179     6 Feb 2026 17:41:50.952           326.773
                     244     6 Feb 2026 19:11:29.877     6 Feb 2026 19:13:23.266           113.389
                     245     6 Feb 2026 19:14:30.296     6 Feb 2026 19:16:38.176           127.880
                     246     7 Feb 2026 04:17:24.962     7 Feb 2026 04:24:01.845           396.883
                     247     7 Feb 2026 05:52:18.222     7 Feb 2026 05:56:07.275           229.053
                     248     7 Feb 2026 05:56:07.478     7 Feb 2026 05:57:28.099            80.621
                     249     7 Feb 2026 17:17:59.330     7 Feb 2026 17:22:50.466           291.136
                     250     7 Feb 2026 18:52:07.941     7 Feb 2026 18:58:47.069           399.128
                     251     8 Feb 2026 03:57:57.882     8 Feb 2026 04:04:57.771           419.889
                     252     8 Feb 2026 05:33:37.504     8 Feb 2026 05:39:08.126           330.622
                     253     8 Feb 2026 16:59:49.149     8 Feb 2026 16:59:56.822             7.673
                     254     8 Feb 2026 17:00:07.769     8 Feb 2026 17:04:41.629           273.860
                     255     8 Feb 2026 18:33:02.284     8 Feb 2026 18:39:32.292           390.008
                     256     9 Feb 2026 03:40:13.155     9 Feb 2026 03:40:28.737            15.582
                     257     9 Feb 2026 03:41:06.420     9 Feb 2026 03:45:29.078           262.658
                     258     9 Feb 2026 05:14:57.169     9 Feb 2026 05:20:36.747           339.578
                     259     9 Feb 2026 16:41:25.801     9 Feb 2026 16:42:27.819            62.017
                     260     9 Feb 2026 16:42:28.641     9 Feb 2026 16:46:38.010           249.369
                     261     9 Feb 2026 18:14:06.405     9 Feb 2026 18:20:23.344           376.939
                     262    10 Feb 2026 03:23:27.336    10 Feb 2026 03:23:30.825             3.489
                     263    10 Feb 2026 03:23:38.786    10 Feb 2026 03:24:10.971            32.185
                     264    10 Feb 2026 03:24:20.057    10 Feb 2026 03:24:38.922            18.866
                     265    10 Feb 2026 03:24:48.610    10 Feb 2026 03:25:30.266            41.655
                     266    10 Feb 2026 04:56:16.451    10 Feb 2026 05:01:56.973           340.522
                     267    10 Feb 2026 16:24:17.987    10 Feb 2026 16:24:20.607             2.619
                     268    10 Feb 2026 16:24:40.196    10 Feb 2026 16:24:42.446             2.250
                     269    10 Feb 2026 16:24:52.649    10 Feb 2026 16:25:24.883            32.233
                     270    10 Feb 2026 16:25:33.946    10 Feb 2026 16:25:42.125             8.179
                     271    10 Feb 2026 16:26:16.250    10 Feb 2026 16:26:27.632            11.382
                     272    10 Feb 2026 17:55:18.210    10 Feb 2026 18:01:13.711           355.501
                     273    10 Feb 2026 19:32:08.934    10 Feb 2026 19:32:12.112             3.178
                     274    11 Feb 2026 04:37:36.475    11 Feb 2026 04:43:09.869           333.394
                     275    11 Feb 2026 06:11:13.111    11 Feb 2026 06:14:14.288           181.177
                     276    11 Feb 2026 06:15:38.919    11 Feb 2026 06:15:40.683             1.763
                     277    11 Feb 2026 17:36:37.299    11 Feb 2026 17:42:04.458           327.159
                     278    11 Feb 2026 19:11:43.681    11 Feb 2026 19:13:36.354           112.673
                     279    11 Feb 2026 19:14:43.551    11 Feb 2026 19:16:50.438           126.887
                     280    12 Feb 2026 04:17:39.165    12 Feb 2026 04:24:15.222           396.057
                     281    12 Feb 2026 05:52:31.394    12 Feb 2026 05:56:16.625           225.231
                     282    12 Feb 2026 05:56:21.113    12 Feb 2026 05:57:40.927            79.814
                     283    12 Feb 2026 17:18:12.154    12 Feb 2026 17:23:03.281           291.127
                     284    12 Feb 2026 18:52:21.473    12 Feb 2026 18:59:01.077           399.604
                     285    13 Feb 2026 03:58:10.529    13 Feb 2026 04:05:11.277           420.748
                     286    13 Feb 2026 05:33:50.665    13 Feb 2026 05:39:21.121           330.456
                     287    13 Feb 2026 17:00:02.973    13 Feb 2026 17:00:10.626             7.653
                     288    13 Feb 2026 17:00:20.873    13 Feb 2026 17:04:54.389           273.516
                     289    13 Feb 2026 18:33:15.677    13 Feb 2026 18:39:45.781           390.104
                     290    14 Feb 2026 03:40:25.490    14 Feb 2026 03:40:42.389            16.899
                     291    14 Feb 2026 03:41:19.940    14 Feb 2026 03:45:43.505           263.565
                     292    14 Feb 2026 05:15:10.336    14 Feb 2026 05:20:49.853           339.517
                     293    14 Feb 2026 16:41:38.363    14 Feb 2026 16:46:50.709           312.346
                     294    14 Feb 2026 18:14:19.699    14 Feb 2026 18:20:36.846           377.147
                     295    15 Feb 2026 03:23:40.660    15 Feb 2026 03:23:44.142             3.481
                     296    15 Feb 2026 03:23:52.081    15 Feb 2026 03:24:24.193            32.112
                     297    15 Feb 2026 03:24:33.260    15 Feb 2026 03:24:52.275            19.015
                     298    15 Feb 2026 03:25:01.755    15 Feb 2026 03:25:43.335            41.580
                     299    15 Feb 2026 03:25:51.006    15 Feb 2026 03:25:52.251             1.244
                     300    15 Feb 2026 04:56:29.608    15 Feb 2026 05:02:10.168           340.561
                     301    15 Feb 2026 16:24:30.404    15 Feb 2026 16:24:33.929             3.525
                     302    15 Feb 2026 16:24:53.476    15 Feb 2026 16:24:55.719             2.244
                     303    15 Feb 2026 16:25:05.895    15 Feb 2026 16:25:38.057            32.162
                     304    15 Feb 2026 16:25:47.095    15 Feb 2026 16:25:55.254             8.159
                     305    15 Feb 2026 16:26:29.294    15 Feb 2026 16:26:43.535            14.241
                     306    15 Feb 2026 17:55:31.419    15 Feb 2026 18:01:27.203           355.784
                     307    16 Feb 2026 04:37:49.628    16 Feb 2026 04:43:23.149           333.521
                     308    16 Feb 2026 06:11:26.294    16 Feb 2026 06:14:27.674           181.380
                     309    16 Feb 2026 06:15:52.483    16 Feb 2026 06:15:53.161             0.678
                     310    16 Feb 2026 17:36:50.420    16 Feb 2026 17:42:17.962           327.542
                     311    16 Feb 2026 19:11:57.497    16 Feb 2026 19:13:49.436           111.939
                     312    16 Feb 2026 19:14:56.809    16 Feb 2026 19:17:02.692           125.883
                     313    17 Feb 2026 04:17:53.363    17 Feb 2026 04:24:28.596           395.233
                     314    17 Feb 2026 05:52:44.558    17 Feb 2026 05:56:25.707           221.149
                     315    17 Feb 2026 05:56:34.748    17 Feb 2026 05:57:53.753            79.004
                     316    17 Feb 2026 17:18:24.975    17 Feb 2026 17:23:16.100           291.125
                     317    17 Feb 2026 18:52:35.007    17 Feb 2026 18:59:15.090           400.083
                     318    18 Feb 2026 03:58:23.178    18 Feb 2026 04:05:24.783           421.605
                     319    18 Feb 2026 05:34:03.823    18 Feb 2026 05:39:34.114           330.291
                     320    18 Feb 2026 17:00:16.791    18 Feb 2026 17:00:24.428             7.637
                     321    18 Feb 2026 17:00:33.362    18 Feb 2026 17:05:07.145           273.783
                     322    18 Feb 2026 18:33:29.071    18 Feb 2026 18:39:59.268           390.198
                     323    19 Feb 2026 03:40:37.829    19 Feb 2026 03:40:56.033            18.204
                     324    19 Feb 2026 03:41:33.458    19 Feb 2026 03:45:57.915           264.458
                     325    19 Feb 2026 05:15:23.502    19 Feb 2026 05:21:02.956           339.454
                     326    19 Feb 2026 16:41:50.928    19 Feb 2026 16:47:03.402           312.474
                     327    19 Feb 2026 18:14:32.996    19 Feb 2026 18:20:50.350           377.354
                     328    20 Feb 2026 03:23:53.984    20 Feb 2026 03:23:57.457             3.473
                     329    20 Feb 2026 03:24:05.372    20 Feb 2026 03:24:37.412            32.040
                     330    20 Feb 2026 03:24:46.460    20 Feb 2026 03:25:05.437            18.977
                     331    20 Feb 2026 03:25:14.896    20 Feb 2026 03:25:56.621            41.724
                     332    20 Feb 2026 03:26:04.057    20 Feb 2026 03:26:06.574             2.516
                     333    20 Feb 2026 04:56:42.767    20 Feb 2026 05:02:23.361           340.594
                     334    20 Feb 2026 16:24:43.733    20 Feb 2026 16:24:47.245             3.513
                     335    20 Feb 2026 16:25:06.748    20 Feb 2026 16:25:08.992             2.244
                     336    20 Feb 2026 16:25:19.141    20 Feb 2026 16:25:51.230            32.089
                     337    20 Feb 2026 16:26:00.239    20 Feb 2026 16:26:08.382             8.143
                     338    20 Feb 2026 16:26:42.335    20 Feb 2026 16:26:59.333            16.998
                     339    20 Feb 2026 17:55:44.628    20 Feb 2026 18:01:40.696           356.068
                     340    21 Feb 2026 04:38:02.775    21 Feb 2026 04:43:36.422           333.647
                     341    21 Feb 2026 06:11:39.477    21 Feb 2026 06:14:41.055           181.579
                     342    21 Feb 2026 17:37:03.541    21 Feb 2026 17:42:31.464           327.924
                     343    21 Feb 2026 19:12:11.312    21 Feb 2026 19:14:02.522           111.210
                     344    21 Feb 2026 19:15:10.062    21 Feb 2026 19:17:14.941           124.879
                     345    22 Feb 2026 04:18:07.565    22 Feb 2026 04:24:41.968           394.403
                     346    22 Feb 2026 05:52:57.731    22 Feb 2026 05:56:34.454           216.724
                     347    22 Feb 2026 05:56:48.379    22 Feb 2026 05:58:06.574            78.195
                     348    22 Feb 2026 17:18:37.805    22 Feb 2026 17:23:28.919           291.113
                     349    22 Feb 2026 18:52:48.541    22 Feb 2026 18:59:29.103           400.562
                     350    23 Feb 2026 03:58:35.829    23 Feb 2026 04:05:38.282           422.454
                     351    23 Feb 2026 05:34:16.977    23 Feb 2026 05:39:47.104           330.127
                     352    23 Feb 2026 17:00:30.615    23 Feb 2026 17:00:38.236             7.622
                     353    23 Feb 2026 17:00:45.862    23 Feb 2026 17:05:19.906           274.043
                     354    23 Feb 2026 18:33:42.465    23 Feb 2026 18:40:12.752           390.287
                     355    24 Feb 2026 03:40:50.172    24 Feb 2026 03:41:09.686            19.514
                     356    24 Feb 2026 03:41:46.979    24 Feb 2026 03:46:12.306           265.326
                     357    24 Feb 2026 05:15:36.670    24 Feb 2026 05:21:16.059           339.389
                     358    24 Feb 2026 16:42:03.502    24 Feb 2026 16:47:16.100           312.598
                     359    24 Feb 2026 18:14:46.292    24 Feb 2026 18:21:03.849           377.558
                     360    25 Feb 2026 03:24:07.303    25 Feb 2026 03:24:10.768             3.465
                     361    25 Feb 2026 03:24:18.671    25 Feb 2026 03:24:50.632            31.961
                     362    25 Feb 2026 03:24:59.662    25 Feb 2026 03:25:18.601            18.939
                     363    25 Feb 2026 03:25:26.355    25 Feb 2026 03:26:10.283            43.927
                     364    25 Feb 2026 03:26:17.113    25 Feb 2026 03:26:20.327             3.214
                     365    25 Feb 2026 04:56:55.926    25 Feb 2026 05:02:36.555           340.628
                     366    25 Feb 2026 16:24:57.055    25 Feb 2026 16:25:00.566             3.511
                     367    25 Feb 2026 16:25:20.026    25 Feb 2026 16:25:22.265             2.239
                     368    25 Feb 2026 16:25:32.393    25 Feb 2026 16:26:04.412            32.019
                     369    25 Feb 2026 16:26:13.392    25 Feb 2026 16:26:21.518             8.126
                     370    25 Feb 2026 16:26:55.383    25 Feb 2026 16:27:15.043            19.660
                     371    25 Feb 2026 17:55:57.839    25 Feb 2026 18:01:54.183           356.344
                     372    26 Feb 2026 04:38:15.926    26 Feb 2026 04:43:49.703           333.777
                     373    26 Feb 2026 06:11:52.658    26 Feb 2026 06:14:54.439           181.781
                     374    26 Feb 2026 17:37:16.664    26 Feb 2026 17:42:44.969           328.304
                     375    26 Feb 2026 19:12:25.137    26 Feb 2026 19:14:15.611           110.474
                     376    26 Feb 2026 19:15:23.323    26 Feb 2026 19:17:27.186           123.863
                     377    27 Feb 2026 04:18:21.760    27 Feb 2026 04:24:55.341           393.581
                     378    27 Feb 2026 05:53:10.897    27 Feb 2026 05:56:42.780           211.883
                     379    27 Feb 2026 05:57:02.012    27 Feb 2026 05:58:19.395            77.382
                     380    27 Feb 2026 17:18:50.633    27 Feb 2026 17:23:41.741           291.107
                     381    27 Feb 2026 18:53:02.080    27 Feb 2026 18:59:43.114           401.035
                     382    28 Feb 2026 03:58:48.484    28 Feb 2026 04:05:51.784           423.300
                     383    28 Feb 2026 05:34:30.138    28 Feb 2026 05:40:00.094           329.956
                     384    28 Feb 2026 17:00:44.441    28 Feb 2026 17:00:52.046             7.605
                     385    28 Feb 2026 17:00:58.365    28 Feb 2026 17:05:32.669           274.304
                     386    28 Feb 2026 18:33:55.862    28 Feb 2026 18:40:26.240           390.378
                     387     1 Mar 2026 03:41:02.522     1 Mar 2026 03:41:23.333            20.811
                     388     1 Mar 2026 03:41:49.052     1 Mar 2026 03:41:50.246             1.194
                     389     1 Mar 2026 03:42:00.498     1 Mar 2026 03:46:26.682           266.184
                     390     1 Mar 2026 05:15:49.841     1 Mar 2026 05:21:29.160           339.320
                     391     1 Mar 2026 16:42:16.077     1 Mar 2026 16:47:28.799           312.722
                     392     1 Mar 2026 18:14:59.590     1 Mar 2026 18:21:17.353           377.763
                     393     2 Mar 2026 03:24:20.627     2 Mar 2026 03:24:24.084             3.457
                     394     2 Mar 2026 03:24:31.964     2 Mar 2026 03:25:03.856            31.892
                     395     2 Mar 2026 03:25:12.867     2 Mar 2026 03:25:31.768            18.901
                     396     2 Mar 2026 03:25:38.850     2 Mar 2026 03:26:23.935            45.085
                     397     2 Mar 2026 03:26:30.161     2 Mar 2026 03:26:34.072             3.911
                     398     2 Mar 2026 04:57:09.084     2 Mar 2026 05:02:49.747           340.662
                     399     2 Mar 2026 16:25:01.724     2 Mar 2026 16:25:02.248             0.524
                     400     2 Mar 2026 16:25:10.383     2 Mar 2026 16:25:13.881             3.498
                     401     2 Mar 2026 16:25:33.308     2 Mar 2026 16:25:35.531             2.222
                     402     2 Mar 2026 16:25:45.642     2 Mar 2026 16:26:17.588            31.946
                     403     2 Mar 2026 16:26:26.541     2 Mar 2026 16:26:34.650             8.109
                     404     2 Mar 2026 16:27:08.426     2 Mar 2026 16:27:30.672            22.246
                     405     2 Mar 2026 17:56:11.050     2 Mar 2026 18:02:07.676           356.627
                     406     3 Mar 2026 04:38:29.078     3 Mar 2026 04:44:02.980           333.902
                     407     3 Mar 2026 06:12:05.838     3 Mar 2026 06:15:07.822           181.984
                     408     3 Mar 2026 17:37:29.788     3 Mar 2026 17:42:58.472           328.685
                     409     3 Mar 2026 19:12:38.967     3 Mar 2026 19:14:28.699           109.732
                     410     3 Mar 2026 19:15:36.577     3 Mar 2026 19:17:39.422           122.845
                     411     4 Mar 2026 04:18:35.958     4 Mar 2026 04:25:08.712           392.754
                     412     4 Mar 2026 05:53:24.065     4 Mar 2026 05:56:38.441           194.376
                     413     4 Mar 2026 05:56:43.708     4 Mar 2026 05:56:50.563             6.854
                     414     4 Mar 2026 05:57:15.644     4 Mar 2026 05:58:32.211            76.568
                     415     4 Mar 2026 17:19:03.463     4 Mar 2026 17:23:54.559           291.095
                     416     4 Mar 2026 18:53:15.619     4 Mar 2026 18:59:57.133           401.514
                     417     5 Mar 2026 03:59:01.141     5 Mar 2026 04:06:05.282           424.141
                     418     5 Mar 2026 05:34:43.292     5 Mar 2026 05:40:13.081           329.789
                     419     5 Mar 2026 17:00:58.267     5 Mar 2026 17:01:05.851             7.585
                     420     5 Mar 2026 17:01:10.872     5 Mar 2026 17:05:45.429           274.557
                     421     5 Mar 2026 18:34:09.256     5 Mar 2026 18:40:39.723           390.467
                     422     6 Mar 2026 03:41:14.875     6 Mar 2026 03:41:36.981            22.106
                     423     6 Mar 2026 03:41:38.448     6 Mar 2026 03:41:38.685             0.237
                     424     6 Mar 2026 03:42:00.682     6 Mar 2026 03:42:03.797             3.115
                     425     6 Mar 2026 03:42:14.019     6 Mar 2026 03:46:41.040           267.021
                     426     6 Mar 2026 05:16:03.006     6 Mar 2026 05:21:42.259           339.253
                     427     6 Mar 2026 16:42:28.661     6 Mar 2026 16:47:41.498           312.837
                     428     6 Mar 2026 18:15:12.885     6 Mar 2026 18:21:30.850           377.965
                     429     7 Mar 2026 03:24:13.127     7 Mar 2026 03:24:14.039             0.912
                     430     7 Mar 2026 03:24:33.949     7 Mar 2026 03:24:37.394             3.445
                     431     7 Mar 2026 03:24:45.256     7 Mar 2026 03:25:17.077            31.821
                     432     7 Mar 2026 03:25:26.063     7 Mar 2026 03:25:44.931            18.868
                     433     7 Mar 2026 03:25:52.000     7 Mar 2026 03:26:39.938            47.938
                     434     7 Mar 2026 03:26:43.212     7 Mar 2026 03:26:47.819             4.608
                     435     7 Mar 2026 04:57:22.241     7 Mar 2026 05:03:02.937           340.696
                     436     7 Mar 2026 16:25:12.865     7 Mar 2026 16:25:15.592             2.727
                     437     7 Mar 2026 16:25:23.712     7 Mar 2026 16:25:27.203             3.492
                     438     7 Mar 2026 16:25:46.587     7 Mar 2026 16:25:48.800             2.213
                     439     7 Mar 2026 16:25:58.889     7 Mar 2026 16:26:30.854            31.965
                     440     7 Mar 2026 16:26:39.688     7 Mar 2026 16:26:47.781             8.094
                     441     7 Mar 2026 16:27:21.474     7 Mar 2026 16:27:46.221            24.746
                     442     7 Mar 2026 17:56:24.261     7 Mar 2026 18:02:21.165           356.904
                     443     8 Mar 2026 04:38:42.230     8 Mar 2026 04:44:16.255           334.025
                     444     8 Mar 2026 06:12:19.018     8 Mar 2026 06:15:21.202           182.184
                     445     8 Mar 2026 17:37:42.913     8 Mar 2026 17:43:11.974           329.062
                     446     8 Mar 2026 19:12:52.803     8 Mar 2026 19:14:41.786           108.983
                     447     8 Mar 2026 19:15:49.835     8 Mar 2026 19:17:51.653           121.818
                     448     9 Mar 2026 04:18:50.152     9 Mar 2026 04:25:22.082           391.930
                     449     9 Mar 2026 05:53:37.235     9 Mar 2026 05:56:51.287           194.052
                     450     9 Mar 2026 05:57:29.276     9 Mar 2026 05:58:45.024            75.749
                     451     9 Mar 2026 17:19:16.301     9 Mar 2026 17:24:07.380           291.080
                     452     9 Mar 2026 18:53:29.159     9 Mar 2026 19:00:11.146           401.987
                     453    10 Mar 2026 03:59:13.799    10 Mar 2026 04:06:18.779           424.979
                     454    10 Mar 2026 05:34:56.450    10 Mar 2026 05:40:26.067           329.617
                     455    10 Mar 2026 17:01:12.093    10 Mar 2026 17:01:19.661             7.568
                     456    10 Mar 2026 17:01:23.385    10 Mar 2026 17:05:58.191           274.806
                     457    10 Mar 2026 18:34:22.654    10 Mar 2026 18:40:53.212           390.558
                     458    11 Mar 2026 03:41:27.233    11 Mar 2026 03:41:52.346            25.113
                     459    11 Mar 2026 03:42:12.327    11 Mar 2026 03:42:17.350             5.023
                     460    11 Mar 2026 03:42:27.537    11 Mar 2026 03:46:54.515           266.978
                     461    11 Mar 2026 05:16:16.172    11 Mar 2026 05:21:55.358           339.186
                     462    11 Mar 2026 16:42:41.252    11 Mar 2026 16:47:54.194           312.942
                     463    11 Mar 2026 18:15:26.185    11 Mar 2026 18:21:44.351           378.166
                     464    12 Mar 2026 03:24:25.060    12 Mar 2026 03:24:27.410             2.350
                     465    12 Mar 2026 03:24:47.270    12 Mar 2026 03:24:50.707             3.437
                     466    12 Mar 2026 03:24:58.549    12 Mar 2026 03:25:30.293            31.744
                     467    12 Mar 2026 03:25:39.266    12 Mar 2026 03:25:58.101            18.835
                     468    12 Mar 2026 03:26:03.668    12 Mar 2026 03:27:01.560            57.893
                     469    12 Mar 2026 04:57:35.401    12 Mar 2026 05:03:16.127           340.725
                     470    12 Mar 2026 16:25:24.075    12 Mar 2026 16:25:28.936             4.861
                     471    12 Mar 2026 16:25:37.038    12 Mar 2026 16:25:40.523             3.485
                     472    12 Mar 2026 16:25:59.865    12 Mar 2026 16:26:02.074             2.209
                     473    12 Mar 2026 16:26:12.142    12 Mar 2026 16:26:44.295            32.153
                     474    12 Mar 2026 16:26:52.838    12 Mar 2026 16:27:00.912             8.075
                     475    12 Mar 2026 16:27:34.519    12 Mar 2026 16:28:01.702            27.184
                     476    12 Mar 2026 17:56:37.475    12 Mar 2026 18:02:34.657           357.182
                     477    13 Mar 2026 04:38:55.379    13 Mar 2026 04:44:29.530           334.151
                     478    13 Mar 2026 06:12:32.198    13 Mar 2026 06:15:34.587           182.389
                     479    13 Mar 2026 17:37:56.039    13 Mar 2026 17:43:25.477           329.438
                     480    13 Mar 2026 19:13:06.641    13 Mar 2026 19:14:54.875           108.235
                     481    13 Mar 2026 19:16:03.096    13 Mar 2026 19:18:03.878           120.782
                     482    14 Mar 2026 04:19:04.342    14 Mar 2026 04:25:35.451           391.109
                     483    14 Mar 2026 05:53:50.402    14 Mar 2026 05:57:04.125           193.724
                     484    14 Mar 2026 05:57:42.905    14 Mar 2026 05:58:57.836            74.931
                     485    14 Mar 2026 17:19:29.134    14 Mar 2026 17:24:20.205           291.071
                     486    14 Mar 2026 18:53:42.703    14 Mar 2026 19:00:25.167           402.463
                     487    15 Mar 2026 03:59:26.462    15 Mar 2026 04:06:32.274           425.813
                     488    15 Mar 2026 05:35:09.610    15 Mar 2026 05:40:39.049           329.439
                     489    15 Mar 2026 17:01:25.919    15 Mar 2026 17:01:33.476             7.557
                     490    15 Mar 2026 17:01:35.901    15 Mar 2026 17:06:10.953           275.052
                     491    15 Mar 2026 18:34:36.055    15 Mar 2026 18:41:06.698           390.643
                     492    16 Mar 2026 03:41:39.594    16 Mar 2026 03:42:06.003            26.409
                     493    16 Mar 2026 03:42:23.988    16 Mar 2026 03:42:30.901             6.913
                     494    16 Mar 2026 03:42:41.050    16 Mar 2026 03:47:07.353           266.303
                     495    16 Mar 2026 05:16:29.340    16 Mar 2026 05:22:08.454           339.113
                     496    16 Mar 2026 16:42:53.847    16 Mar 2026 16:48:06.894           313.048
                     497    16 Mar 2026 18:15:39.486    16 Mar 2026 18:21:57.854           378.369
                     498    17 Mar 2026 03:24:38.435    17 Mar 2026 03:24:40.779             2.344
                     499    17 Mar 2026 03:25:00.587    17 Mar 2026 03:25:04.021             3.434
                     500    17 Mar 2026 03:25:11.843    17 Mar 2026 03:25:43.516            31.673
                     501    17 Mar 2026 03:25:52.465    17 Mar 2026 03:27:15.279            82.813
                     502    17 Mar 2026 04:57:48.559    17 Mar 2026 05:03:29.316           340.756
                     503    17 Mar 2026 16:25:35.345    17 Mar 2026 16:25:42.278             6.933
                     504    17 Mar 2026 16:25:50.365    17 Mar 2026 16:25:53.841             3.476
                     505    17 Mar 2026 16:26:13.141    17 Mar 2026 16:26:15.341             2.199
                     506    17 Mar 2026 16:26:25.391    17 Mar 2026 16:26:57.755            32.364
                     507    17 Mar 2026 16:27:05.989    17 Mar 2026 16:27:14.049             8.060
                     508    17 Mar 2026 16:27:47.565    17 Mar 2026 16:28:17.123            29.557
                     509    17 Mar 2026 17:56:50.690    17 Mar 2026 18:02:48.146           357.456
                     510    18 Mar 2026 04:39:08.528    18 Mar 2026 04:44:42.803           334.276
                     511    18 Mar 2026 06:12:45.380    18 Mar 2026 06:15:47.964           182.584
                     512    18 Mar 2026 17:38:09.166    18 Mar 2026 17:43:38.984           329.818
                     513    18 Mar 2026 19:13:20.484    18 Mar 2026 19:15:07.964           107.480
                     514    18 Mar 2026 19:16:16.356    18 Mar 2026 19:18:16.092           119.736
                     515    19 Mar 2026 04:19:18.531    19 Mar 2026 04:25:48.818           390.287
                     516    19 Mar 2026 05:54:03.572    19 Mar 2026 05:57:16.969           193.397
                     517    19 Mar 2026 05:57:56.533    19 Mar 2026 05:59:10.646            74.113
                     518    19 Mar 2026 17:19:41.973    19 Mar 2026 17:24:33.029           291.056
                     519    19 Mar 2026 18:53:56.248    19 Mar 2026 19:00:38.138           401.890
                     520    20 Mar 2026 03:59:39.126    20 Mar 2026 04:06:45.767           426.641
                     521    20 Mar 2026 05:35:22.765    20 Mar 2026 05:40:52.030           329.265
                     522    20 Mar 2026 17:01:39.751    20 Mar 2026 17:01:47.287             7.536
                     523    20 Mar 2026 17:01:48.424    20 Mar 2026 17:06:23.716           275.292
                     524    20 Mar 2026 18:34:49.457    20 Mar 2026 18:41:20.178           390.721
                     525    21 Mar 2026 03:41:51.962    21 Mar 2026 03:42:19.660            27.698
                     526    21 Mar 2026 03:42:35.660    21 Mar 2026 03:42:44.452             8.791
                     527    21 Mar 2026 03:42:54.568    21 Mar 2026 03:47:20.190           265.622
                     528    21 Mar 2026 05:16:42.508    21 Mar 2026 05:22:21.551           339.042
                     529    21 Mar 2026 16:43:06.443    21 Mar 2026 16:48:19.599           313.156
                     530    21 Mar 2026 18:15:52.785    21 Mar 2026 18:22:11.352           378.566
                     531    22 Mar 2026 03:24:51.807    22 Mar 2026 03:24:54.146             2.338
                     532    22 Mar 2026 03:25:13.910    22 Mar 2026 03:25:17.332             3.421
                     533    22 Mar 2026 03:25:25.137    22 Mar 2026 03:25:56.732            31.594
                     534    22 Mar 2026 03:26:05.662    22 Mar 2026 03:27:28.317            82.654
                     535    22 Mar 2026 04:58:01.716    22 Mar 2026 05:03:42.502           340.786
                     536    22 Mar 2026 16:25:46.675    22 Mar 2026 16:25:55.623             8.949
                     537    22 Mar 2026 16:26:03.694    22 Mar 2026 16:26:07.160             3.466
                     538    22 Mar 2026 16:26:26.354    22 Mar 2026 16:26:28.613             2.259
                     539    22 Mar 2026 16:26:38.643    22 Mar 2026 16:27:11.204            32.561
                     540    22 Mar 2026 16:27:19.140    22 Mar 2026 16:27:27.182             8.042
                     541    22 Mar 2026 16:28:00.612    22 Mar 2026 16:28:32.480            31.868
                     542    22 Mar 2026 17:57:03.905    22 Mar 2026 18:03:01.635           357.731
                     543    23 Mar 2026 04:39:21.679    23 Mar 2026 04:44:56.075           334.396
                     544    23 Mar 2026 06:12:58.562    23 Mar 2026 06:16:01.345           182.783
                     545    23 Mar 2026 17:38:22.296    23 Mar 2026 17:43:52.482           330.186
                     546    23 Mar 2026 19:13:34.334    23 Mar 2026 19:15:21.053           106.718
                     547    23 Mar 2026 19:16:29.610    23 Mar 2026 19:18:28.307           118.697
                     548    24 Mar 2026 04:19:32.722    24 Mar 2026 04:26:02.184           389.463
                     549    24 Mar 2026 05:54:16.743    24 Mar 2026 05:57:29.801           193.058
                     550    24 Mar 2026 05:58:10.160    24 Mar 2026 05:59:23.450            73.291
                     551    24 Mar 2026 17:19:54.814    24 Mar 2026 17:24:45.850           291.036
                     552    24 Mar 2026 18:54:09.795    24 Mar 2026 19:00:50.725           400.930
                     553    25 Mar 2026 03:59:51.792    25 Mar 2026 04:06:59.259           427.467
                     554    25 Mar 2026 05:35:35.923    25 Mar 2026 05:41:05.010           329.087
                     555    25 Mar 2026 17:01:53.580    25 Mar 2026 17:06:36.480           282.900
                     556    25 Mar 2026 18:35:02.859    25 Mar 2026 18:41:33.665           390.806
                     557    26 Mar 2026 03:42:04.334    26 Mar 2026 03:42:33.319            28.985
                     558    26 Mar 2026 03:42:47.340    26 Mar 2026 03:42:58.003            10.663
                     559    26 Mar 2026 03:43:08.084    26 Mar 2026 03:47:33.025           264.941
                     560    26 Mar 2026 05:16:55.679    26 Mar 2026 05:22:34.646           338.967
                     561    26 Mar 2026 16:43:19.050    26 Mar 2026 16:48:32.298           313.248
                     562    26 Mar 2026 18:16:06.084    26 Mar 2026 18:22:24.851           378.767
                     563    27 Mar 2026 03:25:05.179    27 Mar 2026 03:25:07.518             2.338
                     564    27 Mar 2026 03:25:27.228    27 Mar 2026 03:25:30.644             3.416
                     565    27 Mar 2026 03:25:38.430    27 Mar 2026 03:26:09.952            31.521
                     566    27 Mar 2026 03:26:18.864    27 Mar 2026 03:27:41.355            82.491
                     567    27 Mar 2026 04:58:14.877    27 Mar 2026 05:03:55.689           340.812
                     568    27 Mar 2026 16:25:58.058    27 Mar 2026 16:26:08.968            10.910
                     569    27 Mar 2026 16:26:17.022    27 Mar 2026 16:26:20.483             3.460
                     570    27 Mar 2026 16:26:36.512    27 Mar 2026 16:26:41.882             5.370
                     571    27 Mar 2026 16:26:51.893    27 Mar 2026 16:27:24.379            32.487
                     572    27 Mar 2026 16:27:31.389    27 Mar 2026 16:27:40.314             8.925
                     573    27 Mar 2026 16:28:13.662    27 Mar 2026 16:28:47.786            34.124
                     574    27 Mar 2026 17:57:17.122    27 Mar 2026 18:03:15.122           358.001
                     575    28 Mar 2026 04:39:34.827    28 Mar 2026 04:45:09.348           334.521
                     576    28 Mar 2026 06:13:11.743    28 Mar 2026 06:16:14.728           182.986
                     577    28 Mar 2026 17:38:35.426    28 Mar 2026 17:44:05.986           330.559
                     578    28 Mar 2026 19:13:48.191    28 Mar 2026 19:15:34.141           105.950
                     579    28 Mar 2026 19:16:42.871    28 Mar 2026 19:18:40.508           117.637
                     580    29 Mar 2026 04:19:46.904    29 Mar 2026 04:26:15.550           388.646
                     581    29 Mar 2026 05:54:29.909    29 Mar 2026 05:57:42.639           192.731
                     582    29 Mar 2026 05:58:23.788    29 Mar 2026 05:59:36.253            72.465
                     583    29 Mar 2026 17:20:07.655    29 Mar 2026 17:24:58.678           291.023
                     584    29 Mar 2026 18:54:23.344    29 Mar 2026 19:01:03.309           399.964
                     585    30 Mar 2026 04:00:04.462    30 Mar 2026 04:07:12.749           428.287
                     586    30 Mar 2026 05:35:49.084    30 Mar 2026 05:41:17.989           328.905
                     587    30 Mar 2026 17:02:07.415    30 Mar 2026 17:06:49.248           281.833
                     588    30 Mar 2026 18:35:16.262    30 Mar 2026 18:41:47.149           390.886
                     589    31 Mar 2026 03:42:16.709    31 Mar 2026 03:42:46.976            30.267
                     590    31 Mar 2026 03:42:59.034    31 Mar 2026 03:43:11.555            12.522
                     591    31 Mar 2026 03:43:21.601    31 Mar 2026 03:47:45.862           264.261
                     592    31 Mar 2026 05:17:08.845    31 Mar 2026 05:22:47.741           338.896
                     593    31 Mar 2026 16:43:31.659    31 Mar 2026 16:48:44.999           313.340
                     594    31 Mar 2026 18:16:19.386    31 Mar 2026 18:22:38.353           378.967
                     595     1 Apr 2026 03:25:18.549     1 Apr 2026 03:25:20.885             2.336
                     596     1 Apr 2026 03:25:40.545     1 Apr 2026 03:25:43.950             3.405
                     597     1 Apr 2026 03:25:51.719     1 Apr 2026 03:26:23.172            31.453
                     598     1 Apr 2026 03:26:32.060     1 Apr 2026 03:27:54.389            82.328
                     599     1 Apr 2026 04:58:28.031     1 Apr 2026 05:04:08.874           340.842
                     600     1 Apr 2026 16:26:09.488     1 Apr 2026 16:26:22.312            12.824
                     601     1 Apr 2026 16:26:30.351     1 Apr 2026 16:26:33.804             3.453
